,STNID,Lat,Long,Elevation,State,Sta.Name,GSNFlag,HCNFlag,WMOID,Method,ANNprcp_100thIN,ANNprcp_IN,FLAG1,AvgAnnNDS
1,AQC00914000,-14.3167,-170.7667,408.4,AS,AASUFOU,,,NA,TRADITIONAL,21392,213.92,R,203.3
2,AQW00061705,-14.3306,-170.7136,3.7,AS,PAGO PAGO WSO AP,GSN,,91765,TRADITIONAL,12263,122.63,C,160.2
3,CQC00914080,15.2136,145.7497,252.1,MP,CAPITOL HILL 1,,,NA,TRADITIONAL,8339,83.39,P,140.7
4,CQC00914801,14.1717,145.2428,179.2,MP,ROTA AP,,,91221,TRADITIONAL,9124,91.24,R,154.4
5,CQC00914855,15.1189,145.7294,65.5,MP,SAIPAN INTL AP,,,91232,TRADITIONAL,6976,69.76,P,129.6
6,CQC00914874,15,145.6333,81.7,MP,TINIAN,,,91231,TRADITIONAL,7868,78.68,P,142.9
7,FMC00914213,9.4508,138.062,15.2,FM,GILMAN,,,NA,TRADITIONAL,11594,115.94,R,166.1
8,FMC00914325,1.0833,154.8,2.7,FM,KAPINGAMARANGI,,,NA,TRADITIONAL,12840,128.4,P,164.3
9,FMC00914395,5.3544,162.9533,2.1,FM,KOSRAE,,,91355,TRADITIONAL,19334,193.34,P,220.9
10,FMC00914419,5.5167,153.8167,1.5,FM,LUKUNOCH,,,NA,TRADITIONAL,14000,140,P,185.3
11,FMC00914429,9.4833,138.0833,10.1,FM,LUWEECH,,,NA,TRADITIONAL,12219,122.19,R,193
12,FMC00914446,9.6053,138.1786,14.9,FM,MAAP,,,NA,TRADITIONAL,11115,111.15,R,170.5
13,FMC00914482,6.8456,158.3064,9.1,FM,METALANIM,,,NA,TRADITIONAL,15905,159.05,R,206.5
14,FMC00914585,9.5742,138.1108,3,FM,NORTH FANIF,,,NA,TRADITIONAL,11230,112.3,R,172
15,FMC00914590,3.85,155.0167,2.4,FM,NUKUORO,,,91425,TRADITIONAL,15660,156.6,R,183.6
16,FMC00914705,6.9053,158.1586,45.7,FM,PAIES-KITTI,,,NA,TRADITIONAL,21416,214.16,R,263.8
17,FMC00914720,6.2167,160.7,2.4,FM,PINGELAP,,,NA,TRADITIONAL,15301,153.01,R,191.9
18,FMC00914761,7.35,149.2,2.1,FM,POLOWAT,,,91324,TRADITIONAL,10064,100.64,R,145.7
19,FMC00914808,9.6244,138.1592,19.8,FM,RUMUNG,,,NA,TRADITIONAL,11360,113.6,R,182.6
20,FMC00914831,9.55,138.15,21.3,FM,TAMIL,,,NA,TRADITIONAL,11391,113.91,R,165.7
21,FMC00914892,10.0333,139.8,1.8,FM,ULITHI,,,NA,TRADITIONAL,10152,101.52,R,152
22,FMC00914898,5.2739,162.9742,4,FM,UTWA,,,NA,TRADITIONAL,18972,189.72,P,225.3
23,FMC00914911,7.3833,143.9167,2.1,FM,WOLEAI ATOLL,,,91317,TRADITIONAL,12021,120.21,P,163.2
24,FMW00040308,9.4833,138.0833,13.4,FM,YAP ISLAND WSO AP,GSN,,91413,TRADITIONAL,12093,120.93,C,167.6
25,FMW00040504,6.9667,158.2167,36.6,FM,POHNPEI WSO,GSN,,91348,TRADITIONAL,18122,181.22,S,220
26,FMW00040505,7.45,151.8333,1.5,FM,CHUUK WSO AP,GSN,,91334,TRADITIONAL,13454,134.54,S,181.4
27,GQC00914001,13.3894,144.6575,3,GU,AGAT,,,NA,TRADITIONAL,9350,93.5,P,151
28,GQC00914025,13.5761,144.9281,190.2,GU,ANDERSEN AFB GUAM,,,NA,TRADITIONAL,9186,91.86,P,147.5
29,GQC00914156,13.52,144.8472,106.7,GU,DEDEDO,,,NA,TRADITIONAL,9666,96.66,P,174.6
30,GQC00914468,13.4528,144.7981,18.3,GU,MANGILAO,,,NA,TRADITIONAL,9014,90.14,P,153.1
31,GQC00914950,13.5478,144.8928,160,GU,YIGO,,,NA,TRADITIONAL,7259,72.59,P,115.2
32,GQW00041415,13.4836,144.7961,77.4,GU,GUAM INTL AP,GSN,,91212,TRADITIONAL,9764,97.64,S,161.7
33,JQW00021603,16.7333,-169.5167,3,UM,JOHNSTON ISLAND,,,91275,TRADITIONAL,2647,26.47,P,57.8
34,MQW00022701,28.2,-177.3833,5.5,UM,MIDWAY HENDERSON FLD AP,,,91066,TRADITIONAL,3911,39.11,P,75.4
35,PSC00914519,7.45,134.5,31.1,PW,NEKKEN FORESTRY,,,NA,TRADITIONAL,14540,145.4,R,200.8
36,PSW00040309,7.3333,134.4833,28.7,PW,KOROR WSO,GSN,,91408,TRADITIONAL,14764,147.64,C,187
37,RMC00913915,7.2667,168.8333,1.8,MH,AILINGLAPALAP,,,NA,TRADITIONAL,11295,112.95,R,160.4
38,RMC00914304,5.9167,169.65,1.8,MH,JALUIT,,,91369,TRADITIONAL,12630,126.3,R,168.9
39,RMC00914487,6.0833,171.7333,3,MH,MILI,,,91378,TRADITIONAL,11952,119.52,R,167.6
40,RMC00914903,9.4667,170.25,1.8,MH,WOTJE,,,91371,TRADITIONAL,5848,58.48,R,104.2
41,RMW00040604,8.7333,167.7333,2.1,MH,KWAJALEIN,GSN,,91366,TRADITIONAL,9372,93.72,S,144.6
42,RMW00040710,7.0833,171.3833,3,MH,MAJURO WBAS AP,GSN,,91376,TRADITIONAL,12742,127.42,C,172.4
43,RQC00660040,18.1469,-66.4919,598.9,PR,ACEITUNA WATER TREATMENT PLANT,,,NA,TRADITIONAL,7645,76.45,S,83.5
44,RQC00660053,18.1614,-66.7222,506,PR,ADJUNTAS 1 S,,,NA,TRADITIONAL,7764,77.64,R,94.9
45,RQC00660061,18.1747,-66.7978,557.8,PR,ADJUNTAS SUBSTN,,,NA,TRADITIONAL,7861,78.61,S,111.7
46,RQC00660152,17.9556,-66.2222,7.6,PR,AGUIRRE,,,NA,TRADITIONAL,3972,39.72,S,63.9
47,RQC00660158,18.1281,-66.2642,710.2,PR,AIBONITO 1 S,,,NA,TRADITIONAL,6023,60.23,R,99.8
48,RQC00660426,18.3494,-66.7525,323.1,PR,ARECIBO OBSY,,,NA,TRADITIONAL,8413,84.13,S,120.6
49,RQC00660668,18.4286,-66.5631,73.2,PR,BARCELONETA 3 SW,,,NA,TRADITIONAL,6256,62.56,R,113.9
50,RQC00660948,17.9906,-66.8161,4.6,PR,BOCA,,,NA,TRADITIONAL,3726,37.26,R,56.3
51,RQC00661142,18.2258,-66.5039,554.7,PR,CACAOS-OROCOVIS,,,NA,TRADITIONAL,8486,84.86,S,116.7
52,RQC00661309,18.2333,-66.05,79.2,PR,CAGUAS 1 W,,,NA,TRADITIONAL,6099,60.99,R,113.3
53,RQC00661345,18.4725,-67.1156,85,PR,CALERO CAMP,,,NA,TRADITIONAL,5772,57.72,S,95.2
54,RQC00661590,18.3792,-65.8939,9.1,PR,CANOVANAS,,,NA,TRADITIONAL,7730,77.3,S,151
55,RQC00661901,18.1189,-66.1658,395,PR,CAYEY 1 E,,,NA,TRADITIONAL,5909,59.09,R,99.1
56,RQC00662316,17.9833,-66.8167,9.1,PR,CENTRAL SAN FRANCISCO,,,NA,TRADITIONAL,3330,33.3,R,51.4
57,RQC00662330,18.2764,-66.5194,291.1,PR,CERRO GORDO CIALES,,,NA,TRADITIONAL,8429,84.29,R,115.6
58,RQC00662336,18.1547,-66.562,1219.8,PR,CERRO MARAVILLA,,,NA,TRADITIONAL,9932,99.32,R,141.4
59,RQC00662634,18.1833,-66.15,426.7,PR,CIDRA 1 E,,,NA,TRADITIONAL,6490,64.9,R,125
60,RQC00662723,18.0664,-66.3781,111.3,PR,COAMO 2 SW,,,NA,TRADITIONAL,4282,42.82,R,66.7
61,RQC00662801,18.3808,-67.1569,12.2,PR,COLOSO,,,NA,TRADITIONAL,7578,75.78,R,111.4
62,RQC00662934,18.3267,-66.3592,198.1,PR,COROZAL SUBSTN,,,NA,TRADITIONAL,7776,77.76,R,110.3
63,RQC00663023,18.0836,-66.6547,175,PR,CORRAL VIEJO,,,NA,TRADITIONAL,6228,62.28,S,90.3
64,RQC00663409,18.4722,-66.3058,1.5,PR,DORADO 2 WNW,,,NA,TRADITIONAL,6445,64.45,R,119.3
65,RQC00663431,18.3361,-66.6667,61,PR,DOS BOCAS,,,NA,TRADITIONAL,7646,76.46,S,110.5
66,RQC00663532,17.9728,-66.9458,45.7,PR,ENSENADA 1 W,,,NA,TRADITIONAL,3377,33.77,S,47.8
67,RQC00663657,18.3103,-65.6631,9.1,PR,FAJARDO,,,NA,TRADITIONAL,6729,67.29,R,115.9
68,RQC00663904,18.3964,-66.9244,202.1,PR,GUAJATACA DAM,,,NA,TRADITIONAL,7612,76.12,S,105.3
69,RQC00664126,18.0742,-66.4967,112.8,PR,GUAYABAL,,,NA,TRADITIONAL,4973,49.73,R,81.2
70,RQC00664193,17.9783,-66.0875,21.9,PR,GUAYAMA 2E,,,NA,TRADITIONAL,5457,54.57,R,89.3
71,RQC00664276,18.2583,-65.9922,48.8,PR,GURABO SUBSTN,,,NA,TRADITIONAL,6506,65.06,S,109.1
72,RQC00664340,18.45,-66.7667,64.9,PR,HATO ARRIBA ARECIBO,,,NA,TRADITIONAL,5603,56.03,R,89.1
73,RQC00664702,18.4653,-67.0525,128,PR,ISABELA SUBSTN,,,NA,TRADITIONAL,6496,64.96,R,105.3
74,RQC00664867,18.0717,-66.1428,719.3,PR,JAJOME ALTO,,,NA,TRADITIONAL,7615,76.15,S,132.4
75,RQC00664910,18.215,-66.5931,469.4,PR,JAYUYA,,,NA,TRADITIONAL,8253,82.53,R,117
76,RQC00665020,18.0514,-66.4986,79.9,PR,JUANA DIAZ CAMP,,,NA,TRADITIONAL,4215,42.15,R,52.5
77,RQC00665064,18.2264,-65.9114,64.9,PR,JUNCOS 1 SE,,,NA,TRADITIONAL,6837,68.37,S,116
78,RQC00665097,18.0331,-67.0722,27.4,PR,LAJAS SUBSTN,,,NA,TRADITIONAL,4798,47.98,R,71.2
79,RQC00665123,18.3167,-66.1,88.4,PR,LA MUDA CAGUAS,,,NA,TRADITIONAL,7263,72.63,R,119.5
80,RQC00665807,18.4308,-66.4661,76.2,PR,MANATI 2 E,,,NA,TRADITIONAL,6164,61.64,R,103.9
81,RQC00666050,18.0094,-65.8989,14.9,PR,MAUNABO,,,NA,TRADITIONAL,7218,72.18,R,131.4
82,RQC00666073,18.1875,-67.1378,22.6,PR,MAYAGUEZ CITY,,,NA,TRADITIONAL,5945,59.45,R,93.9
83,RQC00666083,18.2539,-67.1486,11.6,PR,MAYAGUEZ AIRPORT,,,NA,TRADITIONAL,8533,85.33,S,113.8
84,RQC00666258,18.0908,-67.9442,2.1,PR,MONA ISLAND 2,,,NA,TRADITIONAL,3901,39.01,R,69.6
85,RQC00666270,18.3794,-66.5153,195.1,PR,MONTE BELLO MANATI,,,NA,TRADITIONAL,6613,66.13,R,107.4
86,RQC00666361,18.4736,-67.0289,125,PR,MORA CAMP,,,NA,TRADITIONAL,6063,60.63,S,100.4
87,RQC00666390,18.3344,-66.4078,182.9,PR,MOROVIS 1 N,,,NA,TRADITIONAL,7309,73.09,S,109.2
88,RQC00666514,18.2886,-66.3433,538.3,PR,NEGRO -COROZAL,,,NA,TRADITIONAL,7531,75.31,S,120.6
89,RQC00666805,18.265,-65.7208,109.7,PR,PARAISO,,,NA,TRADITIONAL,10013,100.13,S,175.2
90,RQC00666900,18.0025,-66.0128,13.7,PR,PATILLAS,,,NA,TRADITIONAL,5574,55.74,R,100.2
91,RQC00666983,18.0586,-66.7183,143.3,PR,PENUELAS 1 E,,,NA,TRADITIONAL,5827,58.27,R,89
92,RQC00666992,18.2708,-65.7592,1051,PR,PICO DEL ESTE,,,NA,TRADITIONAL,17248,172.48,R,248.9
93,RQC00667292,18.0258,-66.5253,21.3,PR,PONCE 4 E,,,NA,TRADITIONAL,3847,38.47,S,58.2
94,RQC00667295,17.985,-66.6294,3,PR,PONCE CITY,,,NA,TRADITIONAL,2901,29.01,R,38.5
95,RQC00668144,18.2433,-65.785,39.6,PR,RIO BLANCO LOWER,,,NA,TRADITIONAL,10711,107.11,R,182.7
96,RQC00668306,18.3906,-66.0542,28,PR,RIO PIEDRAS EXP STN,,,NA,TRADITIONAL,7078,70.78,R,129.6
97,RQC00668815,18.1517,-65.9589,155.4,PR,SAN LORENZO 3S,,,NA,TRADITIONAL,9474,94.74,S,191.6
98,RQC00668940,17.9692,-66.3772,9.1,PR,SANTA ISABEL 2 ENE,,,NA,TRADITIONAL,3627,36.27,S,52.2
99,RQC00669421,18.4333,-66.2667,7.9,PR,TOA BAJA 1 SSW,,,NA,TRADITIONAL,6776,67.76,R,111.8
100,RQC00669432,18.1731,-66.4928,868.1,PR,TORO NEGRO FOREST,,,NA,TRADITIONAL,9294,92.94,R,116.4
101,RQC00669521,18.3283,-66.0164,35.1,PR,TRUJILLO ALTO 2 SSW,,,NA,TRADITIONAL,7056,70.56,R,116.2
102,RQC00669608,18.2617,-66.6864,158.5,PR,UTUADO,,,NA,TRADITIONAL,7178,71.78,R,101.5
103,RQC00669774,18.1094,-66.5056,120.4,PR,VILLALBA 1 SE,,,NA,TRADITIONAL,5762,57.62,R,68.6
104,RQC00669860,18.0436,-66.8606,53.9,PR,YAUCO 1 NW,,,NA,TRADITIONAL,4748,47.48,S,72.1
105,RQW00011603,18.4981,-67.1294,66.4,PR,BORINQUEN AP,,,NA,TRADITIONAL,5472,54.72,R,91.2
106,RQW00011630,18.255,-65.6408,10.1,PR,ROOSEVELT ROADS,,,NA,TRADITIONAL,5234,52.34,R,102.7
107,RQW00011641,18.4325,-66.0108,2.7,PR,SAN JUAN L M MARIN AP,GSN,,78526,TRADITIONAL,5635,56.35,S,108.6
108,USC00010008,31.5703,-85.2483,139,AL,ABBEVILLE,,,NA,TRADITIONAL,5551,55.51,S,73.9
109,USC00010063,34.2553,-87.1814,249.3,AL,ADDISON,,,NA,TRADITIONAL,5824,58.24,R,80.5
110,USC00010140,32.2322,-87.4103,53.3,AL,ALBERTA,,,NA,TRADITIONAL,5431,54.31,S,73.3
111,USC00010160,32.9453,-85.9481,195.1,AL,ALEXANDER CITY,,,NA,TRADITIONAL,5562,55.62,S,78.5
112,USC00010178,33.1272,-88.155,59.4,AL,ALICEVILLE,,,NA,TRADITIONAL,5617,56.17,R,72.8
113,USC00010184,33.21,-88.2878,50.3,AL,ALICEVILLE L&D,,,NA,TRADITIONAL,5314,53.14,S,72.3
114,USC00010252,31.3072,-86.5225,76.2,AL,ANDALUSIA 3 W,,,NA,TRADITIONAL,5997,59.97,R,72.6
115,USC00010369,33.2942,-85.7789,311.5,AL,ASHLAND 3 ENE,,,NA,TRADITIONAL,5815,58.15,R,79.7
116,USC00010390,34.7753,-86.9508,210,AL,ATHENS,,,NA,TRADITIONAL,5689,56.89,R,83.4
117,USC00010402,31.1819,-87.4389,91.4,AL,ATMORE,,,NA,TRADITIONAL,6269,62.69,R,79.8
118,USC00010425,32.5992,-85.4653,166.1,AL,AUBURN NO.2,,,NA,TRADITIONAL,5357,53.57,R,77.2
119,USC00010430,32.6,-85.5,198.7,AL,AUBURN AGRONOMY FARM,,,NA,TRADITIONAL,5255,52.55,R,75.8
120,USC00010440,32.4706,-86.68,61,AL,AUTAUGAVILLE 3 N,,,NA,TRADITIONAL,5156,51.56,R,73.5
121,USC00010505,33.4528,-87.3572,85.3,AL,BANKHEAD LOCK & DAM,,,NA,TRADITIONAL,5984,59.84,S,82.6
122,USC00010583,30.8839,-87.7853,82.6,AL,BAY MINETTE,,,NA,TRADITIONAL,6890,68.9,S,82.7
123,USC00010655,34.6908,-86.8825,182.9,AL,BELLE MINA 2 N,,,NA,TRADITIONAL,5321,53.21,R,80
124,USC00010764,33.3953,-87.0078,135.6,AL,BESSEMER 3 WSW,,,NA,TRADITIONAL,5712,57.12,S,81.4
125,USC00010957,34.2008,-86.1633,326.1,AL,BOAZ,,,NA,TRADITIONAL,5436,54.36,R,80.4
126,USC00011080,31.1414,-87.0486,48.8,AL,BREWTON 3 ENE,,,NA,TRADITIONAL,7073,70.73,S,84.4
127,USC00011084,31.0581,-87.0547,25.9,AL,BREWTON 3 SSE,,HCN,NA,TRADITIONAL,6585,65.85,S,87.1
128,USC00011099,34.9786,-85.8008,204.2,AL,BRIDGEPORT 5 NW,,,NA,TRADITIONAL,6011,60.11,R,83.5
129,USC00011178,31.7056,-85.8369,138.7,AL,BRUNDIDGE,,,NA,TRADITIONAL,5736,57.36,R,71.6
130,USC00011288,33.0944,-86.7456,161.5,AL,CALERA,,,NA,TRADITIONAL,5528,55.28,R,75
131,USC00011301,32.0289,-87.3167,71.6,AL,CAMDEN 3 NW,,,NA,TRADITIONAL,5585,55.85,R,75.2
132,USC00011377,33.8464,-87.4872,136.6,AL,CARBON HILL 4SE,,,NA,TRADITIONAL,5762,57.62,R,74.6
133,USC00011620,33.285,-86.3431,127.4,AL,CHILDERSBURG WTR PL,,,NA,TRADITIONAL,5347,53.47,S,78.1
134,USC00011690,31.6167,-87.55,15.2,AL,CLAIBORNE L&D,,,NA,TRADITIONAL,5283,52.83,R,73.2
135,USC00011694,32.8203,-86.6522,185.9,AL,CLANTON,,,NA,TRADITIONAL,5788,57.88,R,78.3
136,USC00011810,31.7556,-88.1283,14,AL,COFFEEVILLE L&D,,,NA,TRADITIONAL,5294,52.94,S,72.2
137,USC00012096,34.1925,-86.7972,247.2,AL,CULLMAN NAHS,,,NA,TRADITIONAL,5862,58.62,R,85
138,USC00012172,30.2506,-88.0775,2.4,AL,DAUPHIN ISLAND #2,,,NA,TRADITIONAL,6138,61.38,R,72.2
139,USC00012245,32.5192,-87.88,30.5,AL,DEMOPOLIS L&D,,,NA,TRADITIONAL,5452,54.52,S,76.7
140,USC00012577,31.4239,-86.0667,59.4,AL,ELBA,,,NA,TRADITIONAL,5804,58.04,R,77.2
141,USC00012675,31.2975,-85.8997,102.7,AL,ENTERPRISE 4 W,,,NA,TRADITIONAL,5431,54.31,R,70.1
142,USC00012730,32.0111,-85.09,70.1,AL,EUFAULA WILDLIFE REF,,,NA,TRADITIONAL,5014,50.14,R,66.7
143,USC00012758,31.445,-86.9533,88.4,AL,EVERGREEN,,,NA,TRADITIONAL,6102,61.02,S,80.1
144,USC00012813,30.5467,-87.8808,7,AL,FAIRHOPE 2 NE,,HCN,NA,TRADITIONAL,6787,67.87,S,80.1
145,USC00012840,34.3667,-86.8833,190.5,AL,FALKVILLE 1 E,,,NA,TRADITIONAL,5404,54.04,R,79
146,USC00012883,33.6847,-87.8214,111.3,AL,FAYETTE,,,NA,TRADITIONAL,5550,55.5,R,77.8
147,USC00013043,34.4406,-85.7236,279.5,AL,FT PAYNE,,,NA,TRADITIONAL,5413,54.13,R,77.6
148,USC00013154,34.0219,-85.9878,172.2,AL,GADSDEN,,,NA,TRADITIONAL,5459,54.59,R,80.4
149,USC00013160,32.8347,-88.1342,38.1,AL,GAINESVILLE LOCK,,HCN,NA,TRADITIONAL,5266,52.66,S,71.8
150,USC00013251,31.0383,-85.8708,44.2,AL,GENEVA #2,,,NA,TRADITIONAL,5911,59.11,S,75.9
151,USC00013271,31.6772,-86.8061,91.4,AL,GEORGIANA,,,NA,TRADITIONAL,5918,59.18,R,73.2
152,USC00013430,33.6667,-87.1833,106.7,AL,GORGAS 2 ENE,,,NA,TRADITIONAL,5584,55.84,R,80.2
153,USC00013511,32.7019,-87.5817,67.1,AL,GREENSBORO,,HCN,NA,TRADITIONAL,5348,53.48,S,71.2
154,USC00013519,31.79,-86.6086,104.2,AL,GREENVILLE,,,NA,TRADITIONAL,5736,57.36,S,74.5
155,USC00013573,34.3344,-86.3297,176.2,AL,GUNTERSVILLE,,,NA,TRADITIONAL,5333,53.33,R,76.1
156,USC00013575,34.3347,-86.3294,181.4,AL,GUNTERSVILLE NO.2,,,NA,TRADITIONAL,5480,54.8,R,76.2
157,USC00013620,34.2314,-87.6353,280.4,AL,HALEYVILLE,,,NA,TRADITIONAL,6225,62.25,R,85
158,USC00013645,34.0967,-87.9914,132.6,AL,HAMILTON 3 S,,,NA,TRADITIONAL,5972,59.72,S,79.8
159,USC00013655,34.0675,-86.7917,180.4,AL,HANCEVILLE,,,NA,TRADITIONAL,5686,56.86,R,82
160,USC00013761,31.3625,-85.3397,112.8,AL,HEADLAND,,,NA,TRADITIONAL,5377,53.77,S,76.2
161,USC00013775,33.6483,-85.6006,259.1,AL,HEFLIN,,,NA,TRADITIONAL,5505,55.05,S,79.9
162,USC00013781,33.2725,-86.8336,146.3,AL,HELENA,,,NA,TRADITIONAL,5503,55.03,R,76.5
163,USC00013816,31.8814,-86.2503,132,AL,HIGHLAND HOME,,HCN,NA,TRADITIONAL,5572,55.72,R,73.5
164,USC00013930,33.2533,-87.45,59.4,AL,HOLT LOCK & DAM,,,NA,TRADITIONAL,5046,50.46,S,77.7
165,USC00014080,32.2464,-85.4142,122.5,AL,HURTSBORO,,,NA,TRADITIONAL,5040,50.4,R,72.8
166,USC00014193,31.5253,-87.9278,67.1,AL,JACKSON,,,NA,TRADITIONAL,6018,60.18,R,75.6
167,USC00014209,33.8164,-85.7661,209.7,AL,JACKSONVILLE,,,NA,TRADITIONAL,5176,51.76,R,76.4
168,USC00014226,33.9047,-87.3153,148.1,AL,JASPER,,,NA,TRADITIONAL,5967,59.67,R,85.6
169,USC00014274,32.3236,-86.7828,44.5,AL,JONES BLUFF L&D,,,NA,TRADITIONAL,5191,51.91,S,73.1
170,USC00014306,32.6189,-86.2544,88.4,AL,JORDAN DAM,,,NA,TRADITIONAL,4757,47.57,R,64.1
171,USC00014431,31.2403,-86.1947,82.3,AL,KINSTON,,,NA,TRADITIONAL,5984,59.84,R,77
172,USC00014502,32.9069,-85.4336,225.6,AL,LAFAYETTE 2W,,,NA,TRADITIONAL,5455,54.55,R,79
173,USC00014603,32.9633,-86.5203,128,AL,LAY DAM,,,NA,TRADITIONAL,4914,49.14,R,70.8
174,USC00014619,33.5444,-86.5275,193.9,AL,LEEDS,,,NA,TRADITIONAL,5722,57.22,R,72.5
175,USC00014798,32.5811,-88.1897,39,AL,LIVINGSTON,,,NA,TRADITIONAL,5608,56.08,R,66.5
176,USC00014866,33.4258,-86.3386,137.2,AL,LOGAN MARTIN DAM,,,NA,TRADITIONAL,5186,51.86,R,73.7
177,USC00015112,32.7028,-87.2681,52.4,AL,MARION 7 NE,,,NA,TRADITIONAL,5562,55.62,R,78.1
178,USC00015121,32.4714,-87.2314,61,AL,MARION JUNCTION 2 NE,,,NA,TRADITIONAL,5367,53.67,S,78.5
179,USC00015420,32.1003,-87.3983,35.1,AL,MILLERS FERRY L&D,,,NA,TRADITIONAL,5074,50.74,S,71.5
180,USC00015439,32.4419,-85.8889,65.5,AL,MILSTEAD,,,NA,TRADITIONAL,5321,53.21,R,71.9
181,USC00015465,32.8044,-86.4464,106.7,AL,MITCHELL DAM,,,NA,TRADITIONAL,5214,52.14,R,73.8
182,USC00015537,33.0981,-86.8658,125,AL,MONTEVALLO,,,NA,TRADITIONAL,5732,57.32,R,79.9
183,USC00015635,34.4883,-87.2989,189.6,AL,MOULTON 2,,,NA,TRADITIONAL,5716,57.16,S,85.4
184,USC00015658,32.9964,-87.6319,36.6,AL,MOUNDVILLE,,,NA,TRADITIONAL,5603,56.03,R,75.9
185,USC00016000,33.3264,-86.7561,176.8,AL,OAK MTN STATE PARK HQ,,,NA,TRADITIONAL,5891,58.91,R,80.6
186,USC00016121,33.9478,-86.4692,271.9,AL,ONEONTA,,,NA,TRADITIONAL,5541,55.41,R,75.1
187,USC00016129,32.6592,-85.4492,195.1,AL,OPELIKA,,,NA,TRADITIONAL,5473,54.73,R,77
188,USC00016246,33.745,-86.6417,220.1,AL,PALMERDALE,,,NA,TRADITIONAL,5625,56.25,S,80.3
189,USC00016334,32.2258,-88.0281,25.9,AL,PENNINGTON 2 NE,,,NA,TRADITIONAL,5805,58.05,R,75.9
190,USC00016436,31.8817,-86.9861,80.8,AL,PINE APPLE,,,NA,TRADITIONAL,5612,56.12,S,73.9
191,USC00016478,33.6906,-86.685,185.3,AL,PINSON,,,NA,TRADITIONAL,5409,54.09,S,78.2
192,USC00016847,33.3753,-88.02,72.5,AL,REFORM,,,NA,TRADITIONAL,5672,56.72,S,78.6
193,USC00016988,30.5653,-87.7017,49.1,AL,ROBERTSDALE,,,NA,TRADITIONAL,6732,67.32,R,80.9
194,USC00017020,32.8711,-86.1758,182.9,AL,ROCKFORD 3 ESE,,,NA,TRADITIONAL,5658,56.58,R,74.2
195,USC00017025,33.1581,-85.2911,228.6,AL,ROCK MILLS,,,NA,TRADITIONAL,5296,52.96,R,72.2
196,USC00017131,34.51,-87.7319,253,AL,RUSSELLVILLE NO 2,,,NA,TRADITIONAL,5662,56.62,R,74
197,USC00017157,34.1736,-86.8133,243.8,AL,SAINT BERNARD,,HCN,NA,TRADITIONAL,5913,59.13,R,78.9
198,USC00017207,34.2878,-85.9681,362.7,AL,SAND MT SUBSTN,,,NA,TRADITIONAL,5365,53.65,R,80.8
199,USC00017304,34.6736,-86.0536,187.5,AL,SCOTTSBORO,,HCN,NA,TRADITIONAL,5694,56.94,R,79.8
200,USC00017366,32.4111,-87.0144,44.8,AL,SELMA,,HCN,NA,TRADITIONAL,5109,51.09,S,69.8
201,USC00017947,33.8997,-88.1325,106.7,AL,SULLIGENT,,,NA,TRADITIONAL,5812,58.12,R,74.2
202,USC00017999,33.2053,-86.2114,149.4,AL,SYLACAUGA 4 NE,,,NA,TRADITIONAL,5425,54.25,S,78.6
203,USC00018024,33.4164,-86.135,136.6,AL,TALLADEGA,,HCN,NA,TRADITIONAL,5555,55.55,R,78.1
204,USC00018038,32.4392,-86.2025,53.9,AL,TALLAPOOSA WTP,,,NA,TRADITIONAL,4752,47.52,S,68.9
205,USC00018178,31.9172,-87.7347,118.9,AL,THOMASVILLE,,HCN,NA,TRADITIONAL,5781,57.81,S,76.4
206,USC00018209,32.9206,-86.6708,207.3,AL,THORSBY EXP STN,,,NA,TRADITIONAL,5524,55.24,R,76.8
207,USC00018323,31.8075,-85.9722,165.2,AL,TROY,,HCN,NA,TRADITIONAL,5205,52.05,R,68.8
208,USC00018380,33.2119,-87.6161,51.5,AL,TUSCALOOSA ACFD,,HCN,NA,TRADITIONAL,5495,54.95,S,77.4
209,USC00018385,33.2097,-87.5936,46.3,AL,TUSCALOOSA OLIVER DAM,,,NA,TRADITIONAL,5185,51.85,S,75.2
210,USC00018438,32.0142,-85.7464,134.1,AL,UNION SPRINGS 9 S,,HCN,NA,TRADITIONAL,5542,55.42,S,74.8
211,USC00018469,34.5667,-85.6128,323.7,AL,VALLEY HEAD,,HCN,NA,TRADITIONAL,5597,55.97,S,83.6
212,USC00018517,33.7392,-88.1275,90.8,AL,VERNON,,,NA,TRADITIONAL,5733,57.33,R,70.6
213,USC00018605,33.1167,-85.5667,205.7,AL,WADLEY,,,NA,TRADITIONAL,5286,52.86,R,72.5
214,USC00018648,34.0661,-86.3069,259.1,AL,WALNUT GROVE,,,NA,TRADITIONAL,5588,55.88,R,79.3
215,USC00018653,32.7028,-85.8936,125,AL,WALNUT HILL 3 W,,,NA,TRADITIONAL,5619,56.19,R,69.8
216,USC00018673,32.7744,-87.8306,33.5,AL,WARRIOR L&D,,,NA,TRADITIONAL,5602,56.02,S,77.1
217,USC00018755,34.1322,-85.7925,179.8,AL,WEISS DAM,,,NA,TRADITIONAL,4997,49.97,R,74.4
218,USC00018809,33.1186,-87.1267,152.4,AL,WEST BLOCTON,,,NA,TRADITIONAL,5792,57.92,S,80
219,USC00018859,32.5906,-86.2103,78.3,AL,WETUMPKA,,,NA,TRADITIONAL,5129,51.29,S,70.7
220,USC00018867,31.6508,-87.7097,51.8,AL,WHATLEY,,,NA,TRADITIONAL,5948,59.48,R,76.8
221,USC00018998,33.9111,-87.8475,142.6,AL,WINFIELD 2 SW,,,NA,TRADITIONAL,6026,60.26,S,81.5
222,USC00020060,33.9433,-113.1875,659.9,AZ,AGUILA,,,NA,TRADITIONAL,888,8.88,R,15.9
223,USC00020080,32.3697,-112.86,539.5,AZ,AJO,,HCN,NA,TRADITIONAL,684,6.84,R,13.9
224,USC00020100,34.2281,-113.5778,393.2,AZ,ALAMO DAM,,,NA,TRADITIONAL,882,8.82,S,18.5
225,USC00020159,33.8492,-109.1469,2453.6,AZ,ALPINE,,,NA,TRADITIONAL,2194,21.94,R,52.1
226,USC00020174,33.7383,-109.1167,2051.3,AZ,ALPINE 8 SSE,,,NA,TRADITIONAL,2206,22.06,R,50.5
227,USC00020287,31.9792,-111.3831,838.2,AZ,ANVIL RCH,,,NA,TRADITIONAL,1141,11.41,R,27.4
228,USC00020288,33.4625,-111.4814,630.9,AZ,APACHE JUNCTION 5 NE,,,NA,TRADITIONAL,1328,13.28,R,25.3
229,USC00020380,31.5722,-111.335,1103.4,AZ,ARIVACA,,,NA,TRADITIONAL,1869,18.69,R,39.8
230,USC00020498,33.0869,-111.2864,472.4,AZ,ASHURST HAYDEN DAM,,,NA,TRADITIONAL,1031,10.31,R,23.6
231,USC00020586,34.5972,-113.1739,1205.5,AZ,BAGDAD,,,NA,TRADITIONAL,1671,16.71,R,29.2
232,USC00020632,33.8097,-111.6497,502.9,AZ,BARTLETT DAM,,,NA,TRADITIONAL,1481,14.81,R,25.6
233,USC00020670,34.6417,-111.7831,1074.4,AZ,BEAVER CREEK,,,NA,TRADITIONAL,1520,15.2,R,33.6
234,USC00020672,36.8969,-113.9425,571.5,AZ,BEAVER DAM,,,NA,TRADITIONAL,718,7.18,R,21.8
235,USC00020678,35.23,-111.8214,2179.9,AZ,BELLEMONT WFO,,,NA,TRADITIONAL,2015,20.15,R,44.8
236,USC00020683,31.8806,-110.2403,1124.7,AZ,BENSON 6 SE,,,NA,TRADITIONAL,1270,12.7,R,30
237,USC00020750,36.6778,-110.5411,2220.8,AZ,BETATAKIN,,,NA,TRADITIONAL,1280,12.8,R,34.7
238,USC00020775,31.4475,-109.9289,1694.7,AZ,BISBEE 1WNW,,,NA,TRADITIONAL,1905,19.05,R,39.3
239,USC00020808,33.4783,-109.7517,1848.6,AZ,BLACK RIVER PUMPS,,,NA,TRADITIONAL,2027,20.27,S,49.6
240,USC00020949,33.9431,-114.0242,281.9,AZ,BOUSE,,,NA,TRADITIONAL,574,5.74,S,14.3
241,USC00020958,32.325,-109.4917,1151.2,AZ,BOWIE,,,NA,TRADITIONAL,1210,12.1,S,31.2
242,USC00021001,36.2147,-112.062,2438.4,AZ,BRIGHT ANGEL RS,,,NA,TRADITIONAL,2468,24.68,R,49.6
243,USC00021026,33.3761,-112.5828,271.3,AZ,BUCKEYE,,HCN,NA,TRADITIONAL,876,8.76,R,17.2
244,USC00021050,35.1411,-114.5686,161.8,AZ,BULLHEAD CITY,,,NA,TRADITIONAL,598,5.98,S,12.7
245,USC00021231,31.5589,-110.5294,1527,AZ,CANELO 1 NW,,,NA,TRADITIONAL,1886,18.86,R,42.4
246,USC00021248,36.1533,-109.5394,1709.9,AZ,CANYON DE CHELLY,,HCN,NA,TRADITIONAL,958,9.58,R,29.1
247,USC00021282,33.8161,-111.9019,771.1,AZ,CAREFREE,,,NA,TRADITIONAL,1307,13.07,R,25.5
248,USC00021306,32.8878,-111.7117,427.6,AZ,CASA GRANDE,,,NA,TRADITIONAL,904,9.04,R,19.8
249,USC00021314,32.9947,-111.5367,432.5,AZ,CASA GRANDE NM,,,NA,TRADITIONAL,918,9.18,S,21.4
250,USC00021330,32.3222,-110.4147,973.5,AZ,CASCABEL,,,NA,TRADITIONAL,1390,13.9,S,34.1
251,USC00021353,33.9825,-112.3617,606.6,AZ,CASTLE HOT SPRINGS,,,NA,TRADITIONAL,1499,14.99,R,26
252,USC00021514,33.2058,-111.6819,434.3,AZ,CHANDLER HEIGHTS,,HCN,NA,TRADITIONAL,943,9.43,R,19.5
253,USC00021574,34.54,-110.9153,2135.4,AZ,CHEVELON RS,,,NA,TRADITIONAL,1891,18.91,R,45.1
254,USC00021614,34.3494,-111.6981,807.7,AZ,CHILDS,,HCN,NA,TRADITIONAL,1822,18.22,R,38.6
255,USC00021664,32.0061,-109.3572,1615.4,AZ,CHIRICAHUA NM,,,NA,TRADITIONAL,2070,20.7,R,43.8
256,USC00021849,33.0561,-109.3072,1072.9,AZ,CLIFTON,,,NA,TRADITIONAL,1595,15.95,R,41
257,USC00021920,36.9936,-112.9719,1524.3,AZ,COLORADO CITY,,,NA,TRADITIONAL,1400,14,S,36.9
258,USC00022109,34.305,-112.165,1149.4,AZ,CORDES,,,NA,TRADITIONAL,1634,16.34,S,31.3
259,USC00022140,31.3456,-110.2542,1597.8,AZ,CORONADO NM HQ,,,NA,TRADITIONAL,2195,21.95,R,44.3
260,USC00022434,32.9711,-113.4981,158.5,AZ,DATELAND WHITEWING RCH,,,NA,TRADITIONAL,472,4.72,R,10.9
261,USC00022659,31.345,-109.5394,1231.4,AZ,DOUGLAS,,,NA,TRADITIONAL,1391,13.91,R,29.6
262,USC00022754,32.7481,-109.1214,1115.6,AZ,DUNCAN,,,NA,TRADITIONAL,1181,11.81,S,29.6
263,USC00022790,33.6133,-114.4706,141.7,AZ,EHRENBERG 2 E,,,NA,TRADITIONAL,441,4.41,R,10.3
264,USC00022807,32.7819,-111.5186,470.9,AZ,ELOY 4 NE,,,NA,TRADITIONAL,1050,10.5,R,23.1
265,USC00023009,35.1611,-111.7311,2171.7,AZ,FLAGSTAFF 4 SW,,,NA,TRADITIONAL,2316,23.16,R,48.2
266,USC00023027,33.0364,-111.3881,426.7,AZ,FLORENCE,,,NA,TRADITIONAL,972,9.72,R,20.5
267,USC00023150,33.0094,-109.9855,864.1,AZ,FT THOMAS 2 SW,,,NA,TRADITIONAL,1047,10.47,S,26.3
268,USC00023160,35.2681,-111.7428,2239.4,AZ,FT VALLEY,,HCN,NA,TRADITIONAL,2096,20.96,R,45.1
269,USC00023190,33.6028,-111.7131,481.6,AZ,FOUNTAIN HILLS,,,NA,TRADITIONAL,1164,11.64,S,24.5
270,USC00023393,32.9481,-112.7131,224,AZ,GILA BEND,,,NA,TRADITIONAL,703,7.03,S,16.6
271,USC00023448,34.1111,-111.2758,883.9,AZ,GISELA,,,NA,TRADITIONAL,1755,17.55,S,36.9
272,USC00023505,33.3767,-110.7711,1112.5,AZ,GLOBE,,,NA,TRADITIONAL,1675,16.75,R,33.5
273,USC00023596,36.0528,-112.1503,2068.1,AZ,GRAND CANYON NP 2,,HCN,NA,TRADITIONAL,1594,15.94,R,40.2
274,USC00023668,31.8931,-110.9978,883.9,AZ,GREEN VALLEY,,,NA,TRADITIONAL,1419,14.19,R,31.3
275,USC00023683,34.0219,-109.4519,2522.2,AZ,GREER,,,NA,TRADITIONAL,2190,21.9,R,55.6
276,USC00024053,34.47,-112.8881,1011.9,AZ,HILLSIDE 4 NNE,,,NA,TRADITIONAL,1533,15.33,R,34.6
277,USC00024089,34.9094,-110.1544,1549.9,AZ,HOLBROOK,,HCN,NA,TRADITIONAL,864,8.64,R,24
278,USC00024182,33.9825,-111.7139,615.7,AZ,HORSESHOE DAM,,,NA,TRADITIONAL,1442,14.42,S,27.8
279,USC00024391,34.4025,-111.6181,1156.7,AZ,IRVING,,,NA,TRADITIONAL,2090,20.9,R,43.4
280,USC00024453,34.7522,-112.1114,1508.8,AZ,JEROME,,,NA,TRADITIONAL,1871,18.71,R,38.9
281,USC00024590,33.0483,-110.9125,557.8,AZ,KEARNY,,,NA,TRADITIONAL,1344,13.44,R,27.8
282,USC00024675,31.96,-111.5972,2069.6,AZ,KITT PEAK,,,NA,TRADITIONAL,2354,23.54,R,38.9
283,USC00024702,33.2742,-113.9653,541,AZ,KOFA MINE,,,NA,TRADITIONAL,680,6.8,S,14.6
284,USC00024761,34.5031,-114.3603,136.9,AZ,LAKE HAVASU CITY,,,NA,TRADITIONAL,384,3.84,P,8.4
285,USC00024829,33.3369,-112.1472,345.9,AZ,LAVEEN 3 SSE,,,NA,TRADITIONAL,850,8.5,S,20.1
286,USC00024849,36.8644,-111.6022,978.4,AZ,LEES FERRY,,HCN,NA,TRADITIONAL,703,7.03,R,18.9
287,USC00024977,33.4992,-112.3631,317,AZ,LITCHFIELD PARK,,,NA,TRADITIONAL,888,8.88,R,19.6
288,USC00025129,36.4192,-109.2269,1987.3,AZ,LUKACHUKAI,,,NA,TRADITIONAL,792,7.92,R,16.5
289,USC00025270,33.1139,-112.0303,353.6,AZ,MARICOPA 4 N,,,NA,TRADITIONAL,792,7.92,S,19
290,USC00025412,34.1142,-109.8589,2237.2,AZ,MC NARY 2N,,,NA,TRADITIONAL,2626,26.26,S,59.6
291,USC00025418,31.6017,-109.6686,1271,AZ,MC NEAL,,,NA,TRADITIONAL,1180,11.8,S,28.9
292,USC00025467,33.4114,-111.8183,376.4,AZ,MESA,,,NA,TRADITIONAL,949,9.49,R,21
293,USC00025512,33.4044,-110.87,1085.1,AZ,MIAMI,,HCN,NA,TRADITIONAL,1774,17.74,R,36.3
294,USC00025635,34.6106,-111.8381,969.3,AZ,MONTEZUMA CASTLE NM,,,NA,TRADITIONAL,1435,14.35,S,33
295,USC00025665,36.9853,-110.12,1676.7,AZ,MONUMENT VALLEY,,,NA,TRADITIONAL,523,5.23,R,11.5
296,USC00025700,33.5544,-111.4425,519.7,AZ,MORMON FLAT,,,NA,TRADITIONAL,1393,13.93,R,26.8
297,USC00025780,34.9364,-111.6392,1972.1,AZ,MUND'S PARK,,,NA,TRADITIONAL,2356,23.56,R,49
298,USC00025908,32.1167,-110.6833,929.6,AZ,N LAZY H RCH,,,NA,TRADITIONAL,1412,14.12,R,37.4
299,USC00025924,31.4553,-110.9681,1054.9,AZ,NOGALES 6 N,,,NA,TRADITIONAL,1805,18.05,S,38.9
300,USC00026037,34.9589,-111.7553,1566.4,AZ,OAK CREEK CANYON,,,NA,TRADITIONAL,2912,29.12,R,47.3
301,USC00026119,32.6025,-110.7344,1374.6,AZ,ORACLE 2 SE,,,NA,TRADITIONAL,2347,23.47,S,43.4
302,USC00026132,31.9556,-112.8003,511.5,AZ,ORGAN PIPE CACTUS NM,,,NA,TRADITIONAL,1025,10.25,R,20.1
303,USC00026180,36.9208,-111.4483,1301.5,AZ,PAGE,,,72378,TRADITIONAL,683,6.83,R,20
304,USC00026190,35.0681,-109.7689,1755.6,AZ,PAINTED DESERT NP,,,NA,TRADITIONAL,1083,10.83,R,29.5
305,USC00026250,34.1547,-114.2897,128,AZ,PARKER,,HCN,NA,TRADITIONAL,509,5.09,R,10.7
306,USC00026282,31.5481,-110.7517,1277.1,AZ,PATAGONIA #2,,,NA,TRADITIONAL,1845,18.45,S,39.5
307,USC00026328,35.5406,-113.4236,1472.8,AZ,PEACH SPRINGS,,,NA,TRADITIONAL,915,9.15,R,25.8
308,USC00026353,31.9356,-109.8378,1325.9,AZ,PEARCE - SUNSITES,,HCN,NA,TRADITIONAL,1333,13.33,R,32.5
309,USC00026468,34.7994,-109.885,1659.9,AZ,PETRIFIED FOREST NP,,,NA,TRADITIONAL,1046,10.46,R,29.6
310,USC00026471,36.1383,-112.0958,771.1,AZ,PHANTOM RANCH,,,NA,TRADITIONAL,1006,10.06,S,28.7
311,USC00026513,32.6464,-111.4017,603.8,AZ,PICACHO 8 SE,,,NA,TRADITIONAL,1041,10.41,R,24
312,USC00026597,34.1167,-109.9333,2121.4,AZ,PINETOP,,,NA,TRADITIONAL,2098,20.98,R,54.2
313,USC00026601,34.1242,-109.9219,2194.6,AZ,PINETOP 2E,,,NA,TRADITIONAL,2563,25.63,S,56
314,USC00026616,36.8586,-112.7386,1499.6,AZ,PIPE SPRINGS NATL MON,,,NA,TRADITIONAL,1095,10.95,R,29.5
315,USC00026653,34.0989,-110.9442,1539.2,AZ,PLEASANT VALLEY R S,,,NA,TRADITIONAL,2210,22.1,R,43.8
316,USC00026716,31.8828,-109.2058,1642.9,AZ,PORTAL 4 SW,,,NA,TRADITIONAL,2113,21.13,R,45.7
317,USC00026796,34.5706,-112.4322,1586.5,AZ,PRESCOTT,,HCN,NA,TRADITIONAL,1795,17.95,S,38.5
318,USC00026840,33.8556,-111.3064,708.7,AZ,PUNKIN CTR,,,NA,TRADITIONAL,1803,18.03,R,31.3
319,USC00026865,33.665,-114.2272,266.7,AZ,QUARTZSITE,,,NA,TRADITIONAL,498,4.98,R,10.7
320,USC00027036,32.3903,-110.4667,896.1,AZ,REDINGTON,,,NA,TRADITIONAL,1500,15,S,30.6
321,USC00027281,33.6731,-111.1508,672.1,AZ,ROOSEVELT 1 WNW,,HCN,NA,TRADITIONAL,1648,16.48,S,32.2
322,USC00027334,31.7561,-109.4131,1636.8,AZ,RUCKER CANYON,,,NA,TRADITIONAL,1995,19.95,S,41.8
323,USC00027370,33.0722,-111.7661,396.2,AZ,SACATON,,HCN,NA,TRADITIONAL,829,8.29,R,15.4
324,USC00027390,32.815,-109.6808,900.4,AZ,SAFFORD AGRICULTRL CTR,,HCN,NA,TRADITIONAL,967,9.67,S,25.1
325,USC00027435,34.5172,-109.4028,1764.8,AZ,SAINT JOHNS,,HCN,NA,TRADITIONAL,1050,10.5,R,28.6
326,USC00027462,33.6833,-113.4833,487.4,AZ,SALOME 17 SE,,,NA,TRADITIONAL,641,6.41,R,12.9
327,USC00027480,33.1819,-110.5261,771.8,AZ,SAN CARLOS RSVR,,,NA,TRADITIONAL,1488,14.88,R,33.5
328,USC00027488,35.2239,-109.3222,1784,AZ,SANDERS,,,NA,TRADITIONAL,1040,10.4,R,24.1
329,USC00027530,32.6014,-110.6339,1054.6,AZ,SAN MANUEL,,,NA,TRADITIONAL,1403,14.03,S,34.7
330,USC00027560,32.2714,-109.2256,1100.3,AZ,SAN SIMON,,,NA,TRADITIONAL,1105,11.05,R,24.7
331,USC00027593,31.7625,-110.8464,1310.6,AZ,SANTA RITA EXP RANGE,,,NA,TRADITIONAL,2297,22.97,R,45.9
332,USC00027619,31.4831,-111.5436,1094.2,AZ,SASABE,,,NA,TRADITIONAL,1676,16.76,R,32
333,USC00027622,31.6036,-111.6022,1165.9,AZ,SASABE 7 NW,,,NA,TRADITIONAL,1829,18.29,R,33.5
334,USC00027708,34.8956,-111.7644,1286.3,AZ,SEDONA,,,NA,TRADITIONAL,1850,18.5,S,36.6
335,USC00027716,35.3322,-112.8797,1600.2,AZ,SELIGMAN,,HCN,NA,TRADITIONAL,1279,12.79,S,32.1
336,USC00027855,34.2639,-110.0075,1954.1,AZ,SHOW LOW AP,,,NA,TRADITIONAL,1664,16.64,S,40.7
337,USC00027880,31.5553,-110.2847,1402.1,AZ,SIERRA VISTA,,,NA,TRADITIONAL,1420,14.2,R,34.3
338,USC00028012,34.5081,-110.0839,1719.7,AZ,SNOWFLAKE,,,NA,TRADITIONAL,1212,12.12,S,34
339,USC00028018,34.5,-110.3333,1853.2,AZ,SNOWFLAKE 15 W,,,NA,TRADITIONAL,1121,11.21,R,33.8
340,USC00028112,33.3814,-112.07,352,AZ,SOUTH PHOENIX,,,NA,TRADITIONAL,842,8.42,R,19.7
341,USC00028162,34.1311,-109.275,2133,AZ,SPRINGERVILLE,,,NA,TRADITIONAL,1188,11.88,R,33.8
342,USC00028214,33.5575,-111.5358,433.4,AZ,STEWART MOUNTAIN,,,NA,TRADITIONAL,1334,13.34,S,27.2
343,USC00028329,35.3694,-111.5436,2127.5,AZ,SUNSET CRATER NM,,,NA,TRADITIONAL,1724,17.24,R,42.6
344,USC00028348,33.3003,-111.0972,871.7,AZ,SUPERIOR,,,NA,TRADITIONAL,1870,18.7,R,37
345,USC00028349,33.305,-111.0672,1266.4,AZ,SUPERIOR 2 ENE,,,NA,TRADITIONAL,2391,23.91,R,45.8
346,USC00028396,32.7225,-113.9192,98.8,AZ,TACNA 3 NE,,,NA,TRADITIONAL,410,4.1,S,9.6
347,USC00028468,36.9233,-109.09,1612.4,AZ,TEEC NOS POS,,,NA,TRADITIONAL,845,8.45,R,22.7
348,USC00028499,33.4258,-111.9217,355.7,AZ,TEMPE ASU,,,NA,TRADITIONAL,933,9.33,S,20.6
349,USC00028516,36.03,-114.3289,390.1,AZ,TEMPLE BAR,,,NA,TRADITIONAL,568,5.68,R,15.2
350,USC00028598,33.4519,-112.2433,312.4,AZ,TOLLESON 1 E,,,NA,TRADITIONAL,946,9.46,S,21.2
351,USC00028619,31.7119,-110.0686,1420.1,AZ,TOMBSTONE,,HCN,NA,TRADITIONAL,1414,14.14,S,33.8
352,USC00028641,33.4203,-112.86,396.2,AZ,TONOPAH,,,NA,TRADITIONAL,660,6.6,P,16.9
353,USC00028650,34.3839,-111.0972,1947.7,AZ,TONTO CK FISH HAT NO2,,,NA,TRADITIONAL,3207,32.07,R,46.7
354,USC00028792,36.1306,-111.2436,1520.3,AZ,TUBA CITY,,,NA,TRADITIONAL,674,6.74,R,18.5
355,USC00028795,32.2542,-111.1961,780.6,AZ,TUCSON 17 NW,,,NA,TRADITIONAL,1216,12.16,R,28.4
356,USC00028796,32.2817,-110.9442,710.2,AZ,TUCSON CAMP AVE EXP,,,NA,TRADITIONAL,1201,12.01,S,27.5
357,USC00028800,32.25,-110.8333,769.9,AZ,TUCSON MAGNETIC OBSY,,,NA,TRADITIONAL,1415,14.15,R,35.8
358,USC00028815,32.2292,-110.9536,742.2,AZ,TUCSON WFO,,HCN,NA,TRADITIONAL,1162,11.62,R,27
359,USC00028817,32.2581,-111.0053,705.6,AZ,TUCSON U OF A #1,,,NA,TRADITIONAL,1130,11.3,S,28.6
360,USC00028865,31.5678,-111.0497,995.8,AZ,TUMACACORI NM,,,NA,TRADITIONAL,1656,16.56,R,35.4
361,USC00028904,34.7706,-112.0264,1057.7,AZ,TUZIGOOT,,,NA,TRADITIONAL,1271,12.71,S,30.8
362,USC00028998,32.1264,-110.7247,908.3,AZ,VAIL 7 N,,,NA,TRADITIONAL,1402,14.02,R,29.5
363,USC00029114,36.9953,-111.4914,1136.9,AZ,WAHWEAP,,,NA,TRADITIONAL,681,6.81,R,18.3
364,USC00029156,35.1706,-111.5067,2037.6,AZ,WALNUT CANYON N.M.,,,NA,TRADITIONAL,1856,18.56,R,44.7
365,USC00029158,34.9281,-112.8097,1551.4,AZ,WALNUT CREEK,,,NA,TRADITIONAL,1524,15.24,S,34.4
366,USC00029166,34.3117,-112.562,1147.3,AZ,WALNUT GROVE,,,NA,TRADITIONAL,1723,17.23,S,34.8
367,USC00029271,33.8214,-109.9839,1575.8,AZ,WHITERIVER 1 SW,,HCN,NA,TRADITIONAL,2007,20.07,R,38
368,USC00029287,33.9792,-112.7403,638.6,AZ,WICKENBURG,,HCN,NA,TRADITIONAL,1215,12.15,S,24
369,USC00029309,34.7061,-113.6136,612.6,AZ,WIKIEUP,,,NA,TRADITIONAL,931,9.31,R,19
370,USC00029334,32.2553,-109.8369,1271,AZ,WILLCOX,,,NA,TRADITIONAL,1332,13.32,S,32.6
371,USC00029359,35.2406,-112.1903,2057.4,AZ,WILLIAMS,,HCN,NA,TRADITIONAL,2232,22.32,S,49.3
372,USC00029376,35.8686,-114.6611,225.6,AZ,WILLOW BEACH,,,NA,TRADITIONAL,548,5.48,R,13.5
373,USC00029410,35.6169,-109.1244,2109.2,AZ,WINDOW ROCK 4 SW,,,NA,TRADITIONAL,1075,10.75,R,32.1
374,USC00029542,35.5247,-111.3703,1496,AZ,WUPATKI NM,,,NA,TRADITIONAL,841,8.41,R,23.1
375,USC00029562,31.4517,-110.2267,1399,AZ,Y LIGHTNING RCH,,,NA,TRADITIONAL,1629,16.29,R,35.4
376,USC00029634,33.595,-112.3014,345.9,AZ,YOUNGTOWN,,,NA,TRADITIONAL,914,9.14,C,20
377,USC00029645,34.8775,-114.1344,594.4,AZ,YUCCA 1 NNE,,,NA,TRADITIONAL,753,7.53,S,18.3
378,USC00029652,32.6114,-114.635,58.2,AZ,YUMA CITRUS STN,,HCN,NA,TRADITIONAL,368,3.68,R,8.5
379,USC00029656,32.7278,-114.6217,48.8,AZ,YUMA QUARTERMASTER DEPOT,,,NA,TRADITIONAL,359,3.59,P,5.9
380,USC00030006,35.0764,-94.2025,190.2,AR,ABBOTT,,,NA,TRADITIONAL,4798,47.98,R,65.3
381,USC00030064,35.9289,-91.0583,76.8,AR,ALICIA 2NNE,,,NA,TRADITIONAL,4527,45.27,R,65
382,USC00030130,34.7961,-92.8417,212.8,AR,ALUM FORK,,,NA,TRADITIONAL,5658,56.58,S,73.9
383,USC00030150,34.2808,-93.4614,140.2,AR,AMITY 1N,,,NA,TRADITIONAL,5833,58.33,S,75.4
384,USC00030220,34.1433,-93.0589,59.7,AR,ARKADELPHIA 2 N,,,NA,TRADITIONAL,5469,54.69,R,68.1
385,USC00030234,33.6061,-91.2186,44.2,AR,ARKANSAS CITY,,,NA,TRADITIONAL,5255,52.55,S,65.9
386,USC00030240,34.025,-91.3444,59.1,AR,ARKANSAS POST,,,NA,TRADITIONAL,5189,51.89,R,66.6
387,USC00030286,33.6194,-94.0994,97.5,AR,ASHDOWN 4 SSE,,,NA,TRADITIONAL,5205,52.05,S,69.1
388,USC00030300,34.3253,-93.9811,292.6,AR,ATHENS,,,NA,TRADITIONAL,6048,60.48,S,79.2
389,USC00030326,35.2894,-91.3533,59.4,AR,AUGUSTA,,,NA,TRADITIONAL,4927,49.27,S,69.9
390,USC00030458,35.8306,-91.7944,174,AR,BATESVILLE LVSTK,,,NA,TRADITIONAL,4775,47.75,S,69.7
391,USC00030460,35.76,-91.6389,88.4,AR,BATESVILLE L&D 1,,,NA,TRADITIONAL,4867,48.67,S,71.9
392,USC00030586,36.3219,-94.215,371.9,AR,BENTONVILLE 4 S,,,NA,TRADITIONAL,4709,47.09,R,70.9
393,USC00030616,36.4294,-93.6256,359.7,AR,BERRYVILLE 5 NW,,,NA,TRADITIONAL,4563,45.63,R,70
394,USC00030664,34.4619,-93.9983,365.8,AR,BIG FORK 1 SSE,,,NA,TRADITIONAL,6452,64.52,S,77.5
395,USC00030746,36.1067,-91.1039,73.2,AR,BLACK ROCK,,,NA,TRADITIONAL,5146,51.46,S,70.2
396,USC00030764,34.5697,-93.1947,129.8,AR,BLAKELY MTN DAM,,,NA,TRADITIONAL,5640,56.4,R,72.9
397,USC00030798,35.1161,-93.6506,129.8,AR,BLUE MTN DAM,,,NA,TRADITIONAL,4840,48.4,S,70.4
398,USC00030806,35.9239,-89.9044,76.8,AR,BLYTHEVILLE,,,NA,TRADITIONAL,4977,49.77,S,74.4
399,USC00030814,34.3267,-94.4122,358.1,AR,BOGG SPRINGS,,,NA,TRADITIONAL,5407,54.07,R,71.3
400,USC00030832,35.0931,-93.9258,182.9,AR,BOONEVILLE 3 SSE,,,NA,TRADITIONAL,4979,49.79,S,69.1
401,USC00030936,34.8822,-91.2153,56.4,AR,BRINKLEY,,HCN,NA,TRADITIONAL,4844,48.44,S,68.1
402,USC00031102,34.9817,-92.0064,91.4,AR,CABOT,,,NA,TRADITIONAL,5069,50.69,R,69.5
403,USC00031132,36.1092,-92.1636,106.7,AR,CALICO ROCK 2 WSW,,,NA,TRADITIONAL,4775,47.75,R,72.4
404,USC00031140,33.3111,-92.485,30.5,AR,CALION L&D,,,NA,TRADITIONAL,4980,49.8,R,72.6
405,USC00031152,33.59,-92.8236,35.4,AR,CAMDEN 1,,,NA,TRADITIONAL,5268,52.68,S,72.4
406,USC00031310,35.3228,-92.5672,195.1,AR,CENTER RIDGE 4 S,,,NA,TRADITIONAL,5197,51.97,R,68.7
407,USC00031442,34.68,-91.2208,54.9,AR,CLARENDON,,,NA,TRADITIONAL,5157,51.57,R,68.9
408,USC00031455,35.4833,-93.45,138.4,AR,CLARKSVILLE,,,NA,TRADITIONAL,4853,48.53,R,73.8
409,USC00031457,35.5328,-93.4036,259.1,AR,CLARKSVILLE 6 NE,,,NA,TRADITIONAL,5148,51.48,R,73.2
410,USC00031459,35.4564,-93.4425,189,AR,CLARKSVILLE 2,,,NA,TRADITIONAL,5009,50.09,R,69.4
411,USC00031492,35.5836,-92.4511,173.7,AR,CLINTON,,,NA,TRADITIONAL,5240,52.4,R,71.5
412,USC00031508,35.4364,-93.6717,142,AR,COAL HILL,,,NA,TRADITIONAL,5160,51.6,R,64.8
413,USC00031596,35.0833,-92.4294,96,AR,CONWAY,,HCN,NA,TRADITIONAL,4908,49.08,R,70.2
414,USC00031632,36.4197,-90.5858,91.4,AR,CORNING,,HCN,NA,TRADITIONAL,4733,47.33,S,70.9
415,USC00031666,34.4314,-94.4175,323.1,AR,COVE,,,NA,TRADITIONAL,5616,56.16,S,71.6
416,USC00031730,33.1111,-91.9481,54.9,AR,CROSSETT 2 SSE,,,NA,TRADITIONAL,5691,56.91,R,74.4
417,USC00031750,34.6886,-92.45,108.2,AR,CRYSTAL VALLEY,,,NA,TRADITIONAL,5468,54.68,S,75
418,USC00031829,35.4033,-92.3828,207.3,AR,DAMASCUS 2 NNE,,,NA,TRADITIONAL,5180,51.8,S,71.8
419,USC00031834,35.0375,-93.3947,114.3,AR,DANVILLE,,,NA,TRADITIONAL,5173,51.73,S,68.9
420,USC00031900,35.8272,-93.2044,723.9,AR,DEER,,,NA,TRADITIONAL,5572,55.72,S,77.1
421,USC00031948,34.0464,-94.3481,124.1,AR,DEQUEEN,,,NA,TRADITIONAL,5361,53.61,S,67.5
422,USC00031962,33.5597,-91.385,44.2,AR,DERMOTT 3 NE,,,NA,TRADITIONAL,5365,53.65,S,74.2
423,USC00031968,34.9772,-91.4978,61,AR,DES ARC,,,NA,TRADITIONAL,4883,48.83,R,70
424,USC00032015,34.1267,-94.0172,143.3,AR,DIERKS,,,NA,TRADITIONAL,5415,54.15,S,69.5
425,USC00032148,33.8847,-91.5317,49.7,AR,DUMAS,,,NA,TRADITIONAL,5094,50.94,S,63.8
426,USC00032355,33.1144,-91.2628,41.1,AR,EUDORA,,,NA,TRADITIONAL,5713,57.13,S,72.2
427,USC00032356,36.4164,-93.7917,432.8,AR,EUREKA SPRINGS 3 WNW,,HCN,NA,TRADITIONAL,4693,46.93,R,72
428,USC00032366,36.0717,-91.6169,152.4,AR,EVENING SHADE 1 NNE,,,NA,TRADITIONAL,4996,49.96,R,73.5
429,USC00032444,36.1006,-94.1744,387.1,AR,FAYETTEVILLE EXP STN,,HCN,NA,TRADITIONAL,4553,45.53,R,64.1
430,USC00032475,33.0597,-92.1236,18.3,AR,FELSENTHAL L&D,,,NA,TRADITIONAL,5882,58.82,R,71.9
431,USC00032540,33.8228,-92.3989,70.1,AR,FORDYCE,,,NA,TRADITIONAL,5577,55.77,S,73.4
432,USC00032670,33.6128,-93.8136,79.2,AR,FULTON,,,NA,TRADITIONAL,5280,52.8,R,73.5
433,USC00032760,35.1261,-91.4533,61,AR,GEORGETOWN,,,NA,TRADITIONAL,5078,50.78,R,71.1
434,USC00032794,35.9914,-92.7147,189,AR,GILBERT,,,NA,TRADITIONAL,4753,47.53,R,70.4
435,USC00032842,34.3217,-93.5617,178.3,AR,GLENWOOD,,,NA,TRADITIONAL,5867,58.67,S,74.3
436,USC00032922,34.8758,-93.6761,140.5,AR,GRAVELLY 1 ESE,,,NA,TRADITIONAL,5313,53.13,S,75.9
437,USC00032930,36.4261,-94.4481,384,AR,GRAVETTE,,HCN,NA,TRADITIONAL,4738,47.38,S,67.1
438,USC00032946,36.3392,-93.4278,414.5,AR,GREEN FOREST,,,NA,TRADITIONAL,4518,45.18,R,69
439,USC00032962,35.2353,-92.3619,100.6,AR,GREENBRIER,,,NA,TRADITIONAL,4871,48.71,R,67.1
440,USC00032978,35.5206,-91.9997,160.6,AR,GREERS FERRY DAM,,,NA,TRADITIONAL,5091,50.91,R,71.5
441,USC00033132,36.2747,-91.5056,121.9,AR,HARDY,,,NA,TRADITIONAL,4979,49.79,R,71.3
442,USC00033242,34.5211,-90.59,59.4,AR,HELENA,,,NA,TRADITIONAL,5084,50.84,R,67
443,USC00033428,33.7089,-93.5561,114.3,AR,HOPE 3 NE,,,NA,TRADITIONAL,5447,54.47,S,71.3
444,USC00033438,34.3608,-93.6817,219.5,AR,HOPPER,,,NA,TRADITIONAL,5549,55.49,S,74.9
445,USC00033442,33.935,-94.3586,102.7,AR,HORATIO,,,NA,TRADITIONAL,5419,54.19,S,69.5
446,USC00033466,34.5128,-93.0486,190.8,AR,HOT SPRINGS 1 NNE,,,NA,TRADITIONAL,5718,57.18,S,76.2
447,USC00033544,36.07,-93.7522,543.5,AR,HUNTSVILLE 1 SSW,,,NA,TRADITIONAL,4656,46.56,R,74.7
448,USC00033704,34.6719,-93.0747,247.2,AR,JESSIEVILLE,,,NA,TRADITIONAL,5437,54.37,R,70.8
449,USC00033734,35.8489,-90.6589,94.5,AR,JONESBORO 2 NE,,,NA,TRADITIONAL,4823,48.23,R,70.1
450,USC00033821,35.6872,-90.0964,70.7,AR,KEISER,,,NA,TRADITIONAL,5028,50.28,S,74.8
451,USC00033862,34.6033,-91.9928,70.4,AR,KEO,,,NA,TRADITIONAL,4857,48.57,S,68.2
452,USC00034010,34.8511,-92.4889,93,AR,LAKE MAUMELLE,,,NA,TRADITIONAL,4777,47.77,S,69.1
453,USC00034106,36.4194,-92.9158,253,AR,LEAD HILL,,,NA,TRADITIONAL,4582,45.82,R,71.7
454,USC00034134,34.1742,-92.5947,77.7,AR,LEOLA,,,NA,TRADITIONAL,5438,54.38,R,70.9
455,USC00034185,33.3614,-93.5675,103.6,AR,LEWISVILLE,,,NA,TRADITIONAL,5266,52.66,R,68.6
456,USC00034528,35.0264,-90.7347,91.4,AR,MADISON 1 NW,,,NA,TRADITIONAL,4990,49.9,R,69.9
457,USC00034548,33.295,-93.2325,99.1,AR,MAGNOLIA,,,NA,TRADITIONAL,5321,53.21,S,70.4
458,USC00034562,34.3947,-92.8364,91.4,AR,MALVERN,,,NA,TRADITIONAL,5528,55.28,R,73.7
459,USC00034572,36.4947,-91.535,153,AR,MAMMOTH SPRING,,HCN,NA,TRADITIONAL,4749,47.49,R,69.5
460,USC00034638,34.7392,-90.7664,71.3,AR,MARIANNA 2 S,,,NA,TRADITIONAL,5057,50.57,S,71.3
461,USC00034666,35.9156,-92.6394,308.8,AR,MARSHALL,,,NA,TRADITIONAL,4498,44.98,R,66.3
462,USC00034746,36.0822,-91.9822,152.4,AR,MELBOURNE 5W,,,NA,TRADITIONAL,4741,47.41,S,69.7
463,USC00034756,34.5731,-94.2494,344.4,AR,MENA,,HCN,NA,TRADITIONAL,5919,59.19,S,77.4
464,USC00034938,35.1581,-92.7672,103.6,AR,MORRILTON,,,NA,TRADITIONAL,4990,49.9,R,71
465,USC00034988,34.5408,-93.5878,212.4,AR,MT IDA 3 SE,,,NA,TRADITIONAL,5725,57.25,S,75.5
466,USC00035018,35.6494,-94.1542,241.7,AR,MOUNTAINBURG 2 NE,,,NA,TRADITIONAL,5237,52.37,R,71.2
467,USC00035036,36.3458,-92.3939,243.8,AR,MTN HOME 1 NNW,,,NA,TRADITIONAL,4805,48.05,S,73.1
468,USC00035046,35.8444,-92.0978,218.2,AR,MTN VIEW,,,NA,TRADITIONAL,5073,50.73,R,71.3
469,USC00035079,34.0783,-93.7019,140.2,AR,MURFREESBORO 1W,,,NA,TRADITIONAL,5564,55.64,R,72.9
470,USC00035112,33.9294,-93.8583,121.9,AR,NASHVILLE,,,NA,TRADITIONAL,5400,54,S,70.7
471,USC00035160,35.5756,-94.3811,228.6,AR,NATURAL DAM,,,NA,TRADITIONAL,5041,50.41,R,68.3
472,USC00035177,34.1469,-93.8936,192,AR,NEWHOPE 6 S,,,NA,TRADITIONAL,5407,54.07,R,71.8
473,USC00035186,35.6042,-91.2744,69.5,AR,NEWPORT,,HCN,NA,TRADITIONAL,4943,49.43,S,72.2
474,USC00035200,34.9553,-93.1594,146.3,AR,NIMROD DAM,,,NA,TRADITIONAL,5417,54.17,R,73.7
475,USC00035354,35.7803,-94.4161,457.2,AR,ODELL 2 N,,,NA,TRADITIONAL,5304,53.04,S,71.5
476,USC00035358,34.6008,-93.7667,243.8,AR,ODEN 1 SE,,,NA,TRADITIONAL,5579,55.79,S,72.5
477,USC00035498,34.6133,-92.7742,176.8,AR,OWENSVILLE 3E,,,NA,TRADITIONAL,5514,55.14,R,69.2
478,USC00035508,35.4833,-93.8167,118.9,AR,OZARK,,,NA,TRADITIONAL,4923,49.23,R,73.4
479,USC00035512,35.5125,-93.8683,253,AR,OZARK 2,,HCN,NA,TRADITIONAL,5048,50.48,R,72.2
480,USC00035563,36.0336,-90.4978,82.3,AR,PARAGOULD 1S,,,NA,TRADITIONAL,4956,49.56,S,75.6
481,USC00035591,34.7844,-93.9786,184.7,AR,PARKS,,,NA,TRADITIONAL,5075,50.75,S,68.5
482,USC00035691,35.0442,-92.7956,91.4,AR,PERRY,,,NA,TRADITIONAL,5144,51.44,S,72.4
483,USC00035754,34.2256,-92.0189,65.5,AR,PINE BLUFF,,HCN,NA,TRADITIONAL,5286,52.86,S,73.2
484,USC00035760,34.5833,-93.9011,256,AR,PINE RIDGE,,,NA,TRADITIONAL,5648,56.48,S,74.8
485,USC00035820,36.2639,-90.9681,96,AR,POCAHONTAS 1,,HCN,NA,TRADITIONAL,4851,48.51,R,71.6
486,USC00035866,33.2511,-91.5058,39,AR,PORTLAND,,,NA,TRADITIONAL,5468,54.68,R,68.3
487,USC00035908,33.8203,-93.3878,93.9,AR,PRESCOTT 2 NNW,,HCN,NA,TRADITIONAL,5541,55.41,S,73.5
488,USC00036008,35.305,-93.8767,141.1,AR,RATCLIFF,,,NA,TRADITIONAL,4656,46.56,S,66.3
489,USC00036253,33.8103,-91.2778,45.7,AR,ROHWER 2 NNE,,HCN,NA,TRADITIONAL,5186,51.86,R,69
490,USC00036376,34.3703,-91.1242,61,AR,SAINT CHARLES,,,NA,TRADITIONAL,5049,50.49,R,62.2
491,USC00036380,36.4547,-90.1458,91.4,AR,SAINT FRANCIS,,,NA,TRADITIONAL,4672,46.72,R,71
492,USC00036393,35.8236,-93.7672,423.7,AR,ST PAUL 1 E,,,NA,TRADITIONAL,5437,54.37,R,71.6
493,USC00036403,36.3561,-91.8036,207.3,AR,SALEM,,,NA,TRADITIONAL,4778,47.78,S,69.5
494,USC00036506,35.2683,-91.7164,70.1,AR,SEARCY,,,NA,TRADITIONAL,5005,50.05,S,73
495,USC00036562,34.3019,-92.3914,76.2,AR,SHERIDAN,,,NA,TRADITIONAL,5304,53.04,S,70.8
496,USC00036768,33.9153,-92.8267,51.8,AR,SPARKMAN,,,NA,TRADITIONAL,5315,53.15,R,64.6
497,USC00036918,34.4764,-91.5381,68,AR,STUTTGART,,,NA,TRADITIONAL,4933,49.33,S,69.7
498,USC00036920,34.4744,-91.4172,60.4,AR,STUTTGART 9 ESE,,,NA,TRADITIONAL,4944,49.44,S,69.2
499,USC00036928,35.3028,-93.6369,152.4,AR,SUBIACO,,HCN,NA,TRADITIONAL,4764,47.64,S,70.2
500,USC00037038,33.0986,-93.4647,76.2,AR,TAYLOR,,,NA,TRADITIONAL,5219,52.19,R,63.3
501,USC00037383,34.3828,-94.3608,344.1,AR,VANDERVOORT 1 ENE,,,NA,TRADITIONAL,5860,58.6,R,79.9
502,USC00037488,34.8992,-94.1942,205.7,AR,WALDRON,,,NA,TRADITIONAL,5074,50.74,R,69.3
503,USC00037582,33.6044,-92.0997,64,AR,WARREN 2 WSW,,,NA,TRADITIONAL,5740,57.4,S,74.1
504,USC00037712,35.1242,-90.1805,65.5,AR,WEST MEMPHIS,,,NA,TRADITIONAL,5340,53.4,R,74.5
505,USC00038052,35.2547,-90.7964,79.2,AR,WYNNE,,,NA,TRADITIONAL,4821,48.21,R,70.1
506,USC00040010,38.2178,-121.2014,26.5,CA,ACAMPO 5NE,,,NA,TRADITIONAL,1791,17.91,P,40.5
507,USC00040014,34.4939,-118.2714,863.5,CA,ACTON ESCONDIDO FC261,,,NA,TRADITIONAL,1113,11.13,R,23.9
508,USC00040029,41.1936,-120.9447,1278.6,CA,ADIN RS,,,NA,TRADITIONAL,1552,15.52,R,40.5
509,USC00040136,32.8358,-116.7775,516.6,CA,ALPINE,,,NA,TRADITIONAL,1677,16.77,R,30.4
510,USC00040144,34.1822,-118.1383,343.5,CA,ALTADENA,,,NA,TRADITIONAL,2297,22.97,R,25.7
511,USC00040161,41.4931,-120.5528,1341.1,CA,ALTURAS,,,NA,TRADITIONAL,1244,12.44,R,37.5
512,USC00040192,33.8647,-117.8425,102.1,CA,ANAHEIM,,,NA,TRADITIONAL,1343,13.43,R,22.3
513,USC00040212,38.5731,-122.4406,522.7,CA,ANGWIN PAC UNION COL,,,NA,TRADITIONAL,4130,41.3,S,54.9
514,USC00040232,37.9856,-121.7458,18.3,CA,ANTIOCH PUMP PLT #3,,,NA,TRADITIONAL,1322,13.22,R,32.7
515,USC00040235,33.5558,-116.6739,1193.3,CA,ANZA,,,NA,TRADITIONAL,1183,11.83,R,25
516,USC00040343,36.4914,-118.8253,520.6,CA,ASH MTN,,,NA,TRADITIONAL,2711,27.11,R,41.3
517,USC00040379,37.0919,-119.5128,637,CA,AUBERRY 2 NW,,,NA,TRADITIONAL,2625,26.25,S,39.6
518,USC00040383,38.9072,-121.0839,393.8,CA,AUBURN,,,NA,TRADITIONAL,3715,37.15,R,50.4
519,USC00040436,35.2761,-116.0628,293.2,CA,BAKER,,,NA,TRADITIONAL,448,4.48,R,10.2
520,USC00040449,36.9092,-119.0883,524.3,CA,BALCH PWR HOUSE,,,NA,TRADITIONAL,3126,31.26,R,41.5
521,USC00040521,34.8928,-117.0219,676.7,CA,BARSTOW,,,NA,TRADITIONAL,530,5.3,S,14.1
522,USC00040673,37.0856,-122.0797,128,CA,BEN LOMOND #4,,,NA,TRADITIONAL,5048,50.48,S,51.2
523,USC00040684,37.8428,-118.4783,1664.2,CA,BENTON INSPECTION STN,,,NA,TRADITIONAL,714,7.14,R,18.1
524,USC00040693,37.8744,-122.2606,94.5,CA,BERKELEY,,HCN,NA,TRADITIONAL,2674,26.74,R,46
525,USC00040738,40.7406,-123.2078,381.9,CA,BIG BAR 4 E,,,NA,TRADITIONAL,3643,36.43,R,63.4
526,USC00040741,34.2442,-116.9039,2060.4,CA,BIG BEAR LAKE,,,NA,TRADITIONAL,2010,20.1,R,30.2
527,USC00040779,34.3833,-117.6833,2086.4,CA,BIG PINES PARK FC83B,,,NA,TRADITIONAL,2404,24.04,R,35.7
528,USC00040790,36.2472,-121.7803,61,CA,BIG SUR STN,,,NA,TRADITIONAL,4488,44.88,R,48.8
529,USC00040798,34.2947,-118.1883,709,CA,BIG TUJUNGA DAM FC46,,,NA,TRADITIONAL,2655,26.55,R,28.1
530,USC00040819,37.2481,-118.5814,2485.3,CA,BISHOP CREEK INTAKE 2,,,NA,TRADITIONAL,1255,12.55,R,34.9
531,USC00040850,37.3167,-122.1667,646.2,CA,BLACK MTN 2 WSW,,,NA,TRADITIONAL,3928,39.28,R,52.3
532,USC00040924,33.6131,-114.5972,81.7,CA,BLYTHE,,HCN,NA,TRADITIONAL,377,3.77,R,8.1
533,USC00040931,39.3886,-120.0936,1699.3,CA,BOCA,,,NA,TRADITIONAL,2243,22.43,R,44.9
534,USC00040943,38.2119,-119.0142,2551.2,CA,BODIE CA ST HISTORIC PARK,,,NA,TRADITIONAL,1179,11.79,R,32.9
535,USC00040983,33.2314,-116.4144,245.4,CA,BORREGO DESERT PARK,,,NA,TRADITIONAL,613,6.13,S,13.7
536,USC00041010,32.6667,-116.3,1097.3,CA,BOULEVARD 2,,,NA,TRADITIONAL,1702,17.02,R,36.8
537,USC00041048,32.9544,-115.5581,-30.5,CA,BRAWLEY 2 SW,,HCN,NA,TRADITIONAL,278,2.78,R,6.7
538,USC00041072,38.2575,-119.2286,1972.1,CA,BRIDGEPORT,,,NA,TRADITIONAL,940,9.4,R,22.6
539,USC00041080,40.5194,-123.8217,640.1,CA,BRIDGEVILLE 4 NNW,,,NA,TRADITIONAL,7000,70,R,89.1
540,USC00041149,40.8669,-121.8464,1158.2,CA,BUCKHORN,,,NA,TRADITIONAL,6820,68.2,S,75.3
541,USC00041159,39.9372,-121.3147,576.4,CA,BUCKS CREEK,,,NA,TRADITIONAL,6968,69.68,R,71.1
542,USC00041214,40.8803,-121.6547,974.8,CA,BURNEY,,,NA,TRADITIONAL,2842,28.42,R,60.8
543,USC00041244,35.4047,-119.4731,82,CA,BUTTONWILLOW,,,NA,TRADITIONAL,640,6.4,S,18.3
544,USC00041253,34.5825,-119.9817,238.7,CA,CACHUMA LAKE,,,NA,TRADITIONAL,2209,22.09,S,28.3
545,USC00041277,38.2769,-120.3114,1431,CA,CALAVERAS BIG TREES,,,NA,TRADITIONAL,5700,57,R,60.3
546,USC00041288,32.6881,-115.4644,3.7,CA,CALEXICO 2 NE,,,NA,TRADITIONAL,259,2.59,S,6.3
547,USC00041312,38.5961,-122.6014,121.9,CA,CALISTOGA,,,NA,TRADITIONAL,4087,40.87,R,50.6
548,USC00041316,41.3111,-122.8045,970.8,CA,CALLAHAN,,,NA,TRADITIONAL,2152,21.52,S,47.8
549,USC00041428,38.2486,-120.8433,200.6,CA,CAMP PARDEE,,,NA,TRADITIONAL,2349,23.49,S,45.3
550,USC00041484,34.1819,-118.5744,240.8,CA,CANOGA PARK PIERCE CLG,,,NA,TRADITIONAL,1777,17.77,R,23.5
551,USC00041497,40.1703,-121.0883,1389.9,CA,CANYON DAM,,,NA,TRADITIONAL,3761,37.61,S,58.7
552,USC00041606,41.1417,-123.1392,704.1,CA,CECILVILLE,,,NA,TRADITIONAL,3782,37.82,R,66.1
553,USC00041614,41.5306,-120.1803,1408.5,CA,CEDARVILLE,,HCN,NA,TRADITIONAL,1256,12.56,S,39.5
554,USC00041697,37.9747,-119.9161,1452.4,CA,CHERRY VALLEY DAM,,,NA,TRADITIONAL,5051,50.51,R,55.8
555,USC00041700,40.3033,-121.2422,1380.7,CA,CHESTER,,,NA,TRADITIONAL,3435,34.35,R,62.4
556,USC00041715,39.6911,-121.8211,56.4,CA,CHICO UNIV FARM,,HCN,NA,TRADITIONAL,2667,26.67,R,42.2
557,USC00041758,32.64,-117.0858,17.1,CA,CHULA VISTA,,HCN,NA,TRADITIONAL,983,9.83,R,19.1
558,USC00041806,38.9239,-122.5672,411.2,CA,CLEARLAKE 4 SE,,,NA,TRADITIONAL,3142,31.42,R,47.8
559,USC00041838,38.8,-123.0175,100.6,CA,CLOVERDALE,,,NA,TRADITIONAL,4313,43.13,R,55.9
560,USC00041864,36.1356,-120.3606,204.2,CA,COALINGA,,,NA,TRADITIONAL,825,8.25,S,19.4
561,USC00041878,37.2503,-119.7053,679.7,CA,COARSEGOLD 1 SW,,,NA,TRADITIONAL,2729,27.29,R,39.7
562,USC00041907,40.4,-122.1433,128,CA,COLEMAN FISHERIES STN,,,NA,TRADITIONAL,3058,30.58,S,55.1
563,USC00041912,39.0911,-120.9481,725.4,CA,COLFAX,,HCN,NA,TRADITIONAL,4704,47.04,S,58.1
564,USC00041916,39.3308,-121.1922,181.4,CA,COLGATE PH,,,NA,TRADITIONAL,4238,42.38,S,59.1
565,USC00041948,39.1875,-122.0269,15.2,CA,COLUSA 2 SSW,,,NA,TRADITIONAL,1784,17.84,R,38.6
566,USC00041967,37.9833,-122.0692,12.2,CA,CONCORD WWTP,,,NA,TRADITIONAL,1812,18.12,P,41.1
567,USC00041990,41.9797,-122.3378,823.9,CA,COPCO #1 DAM,,,NA,TRADITIONAL,2093,20.93,S,53.7
568,USC00042012,36.0975,-119.5817,61,CA,CORCORAN IRRIG DIST,,,NA,TRADITIONAL,755,7.55,S,21.9
569,USC00042081,39.8158,-123.2444,430.7,CA,COVELO,,,NA,TRADITIONAL,4246,42.46,S,64
570,USC00042090,34.0919,-117.8806,185,CA,COVINA CITY YRD FC387B,,,NA,TRADITIONAL,1879,18.79,R,25.8
571,USC00042147,41.7958,-124.2147,13.1,CA,CRESCENT CITY 3 NNW,,,NA,TRADITIONAL,7124,71.24,R,88.6
572,USC00042198,34.3175,-117.8419,1629.2,CA,CRYSTAL LAKE FC238C,,,NA,TRADITIONAL,3347,33.47,R,36.4
573,USC00042214,34.0053,-118.4136,20.7,CA,CULVER CITY,,,NA,TRADITIONAL,1393,13.93,R,19
574,USC00042239,32.9897,-116.5872,1414.3,CA,CUYAMACA,,HCN,NA,TRADITIONAL,3341,33.41,S,39.9
575,USC00042294,38.535,-121.7761,18.3,CA,DAVIS 2 WSW EXP FARM,,HCN,NA,TRADITIONAL,1960,19.6,S,38.3
576,USC00042319,36.4622,-116.8669,-59.1,CA,DEATH VALLEY,,HCN,NA,TRADITIONAL,236,2.36,S,5.8
577,USC00042327,33.6514,-116.3764,365.8,CA,DEEP CANYON LAB,,,NA,TRADITIONAL,567,5.67,R,12.3
578,USC00042331,37.3739,-117.9803,1592.6,CA,DEEP SPRINGS COLLEGE,,,NA,TRADITIONAL,683,6.83,R,15
579,USC00042346,35.7683,-119.26,92,CA,DELANO,,,NA,TRADITIONAL,751,7.51,S,21.5
580,USC00042402,39.8717,-121.6108,826,CA,DE SABLA,,,NA,TRADITIONAL,6767,67.67,R,67.6
581,USC00042406,32.85,-116.6167,1066.8,CA,DESCANSO RS,,,NA,TRADITIONAL,2373,23.73,R,36.3
582,USC00042456,39.3575,-121.2011,499.9,CA,DOBBINS 1 S,,,NA,TRADITIONAL,4891,48.91,P,54.9
583,USC00042467,39.3239,-120.2331,1809.6,CA,DONNER MEM SP,,,NA,TRADITIONAL,3846,38.46,R,58.6
584,USC00042494,33.9297,-118.1456,33.5,CA,DOWNEY FIRE DEPT FC107C,,,NA,TRADITIONAL,1432,14.32,R,20.7
585,USC00042500,39.5633,-120.8239,888.5,CA,DOWNIEVILLE,,,NA,TRADITIONAL,6524,65.24,S,67.7
586,USC00042504,40.0244,-120.1044,1292.4,CA,DOYLE,,,NA,TRADITIONAL,1173,11.73,S,27.9
587,USC00042506,39.9717,-120.0828,1338.1,CA,DOYLE 4 SSE,,,NA,TRADITIONAL,1569,15.69,S,31
588,USC00042574,41.1833,-122.2736,661.4,CA,DUNSMUIR TRTMNT PLT,,,NA,TRADITIONAL,6495,64.95,R,73.3
589,USC00042598,33.8089,-115.4508,296.6,CA,EAGLE MTN,,,NA,TRADITIONAL,410,4.1,S,9.5
590,USC00042640,39.3592,-122.5178,367.3,CA,EAST PARK RSVR,,,NA,TRADITIONAL,2294,22.94,R,42.7
591,USC00042671,38.7833,-120.0333,2240.3,CA,ECHO SUMT SIERRA AT TA,,,NA,TRADITIONAL,5243,52.43,R,72.3
592,USC00042706,32.8139,-116.975,123.4,CA,EL CAJON,,,NA,TRADITIONAL,1231,12.31,R,22.2
593,USC00042709,32.8839,-116.8164,182.9,CA,EL CAPITAN DAM,,,NA,TRADITIONAL,1638,16.38,R,29.7
594,USC00042713,32.7669,-115.5617,-9.1,CA,EL CENTRO 2 SSW,,,NA,TRADITIONAL,285,2.85,S,6.7
595,USC00042728,38.3306,-120.6706,217.9,CA,ELECTRA P H,,HCN,NA,TRADITIONAL,3232,32.32,R,44
596,USC00042756,37.9356,-119.2306,2939.8,CA,ELLERY LAKE,,,NA,TRADITIONAL,2406,24.06,R,63.9
597,USC00042760,38.2333,-121.2,28,CA,ELLIOTT,,,NA,TRADITIONAL,2100,21,R,41.2
598,USC00042771,34.5892,-117.6303,899.2,CA,EL MIRAGE,,,NA,TRADITIONAL,551,5.51,S,14.9
599,USC00042805,33.6692,-117.3319,391.7,CA,ELSINORE,,,NA,TRADITIONAL,1244,12.44,R,21.5
600,USC00042863,33.1211,-117.0883,182.9,CA,ESCONDIDO #2,,,NA,TRADITIONAL,1500,15,R,27.1
601,USC00042920,37.585,-120.2672,134.7,CA,EXCHEQUER DAM,,,NA,TRADITIONAL,2062,20.62,S,39.7
602,USC00042934,38.2736,-122.0678,12.2,CA,FAIRFIELD,,,NA,TRADITIONAL,2481,24.81,S,43.2
603,USC00042941,34.705,-118.4242,932.7,CA,FAIRMONT,,HCN,NA,TRADITIONAL,1676,16.76,R,24.2
604,USC00043038,38.5236,-120.7061,658.4,CA,FIDDLETOWN DEXTER RCH,,,NA,TRADITIONAL,3751,37.51,S,54.1
605,USC00043083,36.3642,-120.1561,86.9,CA,FIVE POINTS 5 SSW,,,NA,TRADITIONAL,840,8.4,R,19.5
606,USC00043134,39.01,-120.845,919,CA,FORESTHILL RANGER STATION,,,NA,TRADITIONAL,5398,53.98,R,51.8
607,USC00043157,41.52,-120.09,1442.3,CA,FT BIDWELL,,,NA,TRADITIONAL,1812,18.12,R,57.5
608,USC00043161,39.5092,-123.7567,37.5,CA,FT BRAGG 5 N,,HCN,NA,TRADITIONAL,4347,43.47,R,71.5
609,USC00043244,37.5422,-122.0158,11.6,CA,FREMONT,,,NA,TRADITIONAL,1668,16.68,P,40.1
610,USC00043261,36.9969,-119.7072,125,CA,FRIANT GOVERNMENT CAMP,,,NA,TRADITIONAL,1493,14.93,S,32.3
611,USC00043357,41.8453,-123.9647,118,CA,GASQUET RS,,,NA,TRADITIONAL,9073,90.73,S,96.6
612,USC00043369,37.7519,-119.1403,2734.1,CA,GEM LAKE,,,NA,TRADITIONAL,2011,20.11,R,56.7
613,USC00043402,34.5225,-119.6822,474.9,CA,GIBRALTAR DAM NO 2,,,NA,TRADITIONAL,2921,29.21,R,25.8
614,USC00043417,37.0067,-121.5633,59.1,CA,GILROY,,,NA,TRADITIONAL,2054,20.54,R,37.3
615,USC00043452,34.1472,-117.8472,284.4,CA,GLENDORA FC 287B,,,NA,TRADITIONAL,2260,22.6,R,27.9
616,USC00043463,35.7269,-118.7006,957.1,CA,GLENNVILLE,,,NA,TRADITIONAL,2020,20.2,S,36.5
617,USC00043489,32.8833,-114.8667,147.8,CA,GOLD ROCK RCH,,,NA,TRADITIONAL,399,3.99,R,10.3
618,USC00043491,39.165,-120.8567,1011.9,CA,GOLD RUN 2 SW,,,NA,TRADITIONAL,5533,55.33,S,62
619,USC00043498,35.2814,-116.7844,899.2,CA,GOLDSTONE ECHO #2,,,NA,TRADITIONAL,588,5.88,R,12.6
620,USC00043551,36.7394,-118.9631,2011.7,CA,GRANT GROVE,,,NA,TRADITIONAL,4226,42.26,R,48.3
621,USC00043573,39.2042,-121.0681,731.5,CA,GRASS VALLEY #2,,,NA,TRADITIONAL,5374,53.74,S,62.6
622,USC00043578,38.4306,-122.8647,61,CA,GRATON,,,NA,TRADITIONAL,4228,42.28,C,54.6
623,USC00043614,41.5519,-122.9236,859.5,CA,GREENVIEW,,,NA,TRADITIONAL,2600,26,R,35.5
624,USC00043647,40.4864,-123.9089,125.9,CA,GRIZZLY CREEK SP,,,NA,TRADITIONAL,5594,55.94,R,79.4
625,USC00043672,37.8231,-120.0983,958.6,CA,GROVELAND RS,,,NA,TRADITIONAL,3823,38.23,R,45.4
626,USC00043710,36.1389,-117.9528,1165.9,CA,HAIWEE,,,NA,TRADITIONAL,733,7.33,S,16.3
627,USC00043714,37.4725,-122.4433,8.2,CA,HALF MOON BAY,,,NA,TRADITIONAL,2900,29,R,50.1
628,USC00043747,36.3158,-119.6369,72.2,CA,HANFORD 1 S,,HCN,NA,TRADITIONAL,896,8.96,S,24.3
629,USC00043800,39.2372,-121.2667,243.8,CA,HARRY L ENGLEBRIGHT DM,,,NA,TRADITIONAL,3550,35.5,S,53.9
630,USC00043824,40.9317,-121.5433,919,CA,HAT CREEK,,,NA,TRADITIONAL,1916,19.16,R,49.6
631,USC00043855,33.7044,-115.6289,417.6,CA,HAYFIELD PUMPING PLT,,,NA,TRADITIONAL,486,4.86,S,10.4
632,USC00043875,38.6175,-122.8731,32.9,CA,HEALDSBURG,,HCN,NA,TRADITIONAL,4395,43.95,S,53.4
633,USC00043878,38.6333,-122.8667,45.7,CA,HEALDSBURG #2,,,NA,TRADITIONAL,4426,44.26,P,53.3
634,USC00043896,33.7381,-116.8939,552,CA,HEMET,,,NA,TRADITIONAL,1171,11.71,S,21.8
635,USC00043914,33.2372,-116.7614,823,CA,HENSHAW DAM,,,NA,TRADITIONAL,2669,26.69,S,35.2
636,USC00043939,37.9614,-119.7831,1179.6,CA,HETCH HETCHY,,,NA,TRADITIONAL,3770,37.7,S,55.9
637,USC00044025,36.8483,-121.4214,83.8,CA,HOLLISTER 2,,,NA,TRADITIONAL,1419,14.19,R,32.7
638,USC00044176,37.2275,-119.2206,2139.7,CA,HUNTINGTON LAKE,,,NA,TRADITIONAL,4484,44.84,R,62.6
639,USC00044211,33.7572,-116.7067,1639.8,CA,IDYLLWILD FIRE DEPT,,,NA,TRADITIONAL,2618,26.18,R,35.9
640,USC00044223,32.8489,-115.5667,-19.5,CA,IMPERIAL,,,NA,TRADITIONAL,290,2.9,S,6.8
641,USC00044232,36.7981,-118.2036,1204,CA,INDEPENDENCE,,HCN,NA,TRADITIONAL,548,5.48,S,12.1
642,USC00044259,33.7086,-116.2153,-6.4,CA,INDIO FIRE STN,,HCN,NA,TRADITIONAL,344,3.44,P,6
643,USC00044278,35.6514,-117.8214,740.7,CA,INYOKERN,,,NA,TRADITIONAL,494,4.94,R,10.4
644,USC00044288,39.1181,-120.8406,944.9,CA,IOWA HILL,,,NA,TRADITIONAL,5673,56.73,R,62.4
645,USC00044297,34.1472,-115.1219,281,CA,IRON MTN,,,NA,TRADITIONAL,401,4.01,S,9.8
646,USC00044374,41.2683,-120.2947,1645.9,CA,JESS VALLEY,,,NA,TRADITIONAL,1910,19.1,R,56.9
647,USC00044422,34.4908,-119.5069,682.8,CA,JUNCAL DAM,,,NA,TRADITIONAL,3127,31.27,S,27.6
648,USC00044484,38.8089,-120.8208,609.6,CA,KELSEY 1 N,,,NA,TRADITIONAL,3894,38.94,R,55.7
649,USC00044500,37.9569,-122.5439,44.2,CA,KENTFIELD,,,NA,TRADITIONAL,4798,47.98,S,52.1
650,USC00044523,35.7831,-118.4389,823.9,CA,KERN RIVER PH 3,,,NA,TRADITIONAL,1310,13.1,R,26.6
651,USC00044536,36.0725,-120.0878,154.8,CA,KETTLEMAN STN,,,NA,TRADITIONAL,719,7.19,R,18.4
652,USC00044555,36.2069,-121.1378,97.5,CA,KING CITY,,,NA,TRADITIONAL,1206,12.06,S,27.2
653,USC00044577,41.5786,-124.0747,8.5,CA,KLAMATH,,,NA,TRADITIONAL,7960,79.6,R,96.8
654,USC00044628,34.2222,-118.2378,470.9,CA,LA CRESCENTA FC251 C,,,NA,TRADITIONAL,2333,23.33,R,24.7
655,USC00044647,33.5453,-117.7814,13.4,CA,LAGUNA BEACH,,,NA,TRADITIONAL,1381,13.81,R,22.3
656,USC00044671,34.2467,-117.1883,1586.5,CA,LAKE ARROWHEAD,,,NA,TRADITIONAL,3962,39.62,R,32
657,USC00044705,37.2131,-118.6136,2763,CA,LAKE SABRINA,,,NA,TRADITIONAL,1591,15.91,R,45.7
658,USC00044710,32.8536,-116.8947,210.3,CA,LAKESIDE 2 E,,,NA,TRADITIONAL,1555,15.55,S,28.1
659,USC00044712,38.4919,-122.0039,57.9,CA,LAKE SOLANO,,,NA,TRADITIONAL,2605,26.05,S,40.4
660,USC00044713,39.3183,-120.6392,1571.5,CA,LAKE SPAULDING,,HCN,NA,TRADITIONAL,7682,76.82,R,72.9
661,USC00044735,32.7675,-117.0233,161.5,CA,LA MESA,,,NA,TRADITIONAL,1268,12.68,R,23.2
662,USC00044838,41.7019,-121.5011,1453.9,CA,LAVA BEDS NM,,,NA,TRADITIONAL,1518,15.18,R,38.6
663,USC00044863,34.8328,-118.865,1092.7,CA,LEBEC,,,NA,TRADITIONAL,1316,13.16,R,24.3
664,USC00044867,34.0764,-118.8803,487.7,CA,LECHUZA PTRL ST FC352B,,,NA,TRADITIONAL,2089,20.89,R,26.9
665,USC00044881,37.9567,-119.1194,2071.7,CA,LEE VINING,,,NA,TRADITIONAL,1567,15.67,R,29.6
666,USC00044890,36.3817,-119.0264,156.4,CA,LEMON COVE,,HCN,NA,TRADITIONAL,1468,14.68,S,31.4
667,USC00044957,36.2033,-119.0545,132.6,CA,LINDSAY,,,NA,TRADITIONAL,1246,12.46,S,28.4
668,USC00044997,37.6922,-121.7692,146.3,CA,LIVERMORE,,HCN,NA,TRADITIONAL,1523,15.23,S,37
669,USC00045026,36.6044,-118.7325,2052.8,CA,LODGEPOLE,,,NA,TRADITIONAL,4548,45.48,R,50.8
670,USC00045032,38.1061,-121.2878,12.2,CA,LODI,,HCN,NA,TRADITIONAL,1902,19.02,R,40.9
671,USC00045064,34.6539,-120.4514,29,CA,LOMPOC,,,NA,TRADITIONAL,1599,15.99,S,28.6
672,USC00045107,34.7456,-120.28,172.2,CA,LOS ALAMOS,,,NA,TRADITIONAL,1699,16.99,R,28.1
673,USC00045118,37.0564,-120.8667,36.6,CA,LOS BANOS,,,NA,TRADITIONAL,995,9.95,S,27.1
674,USC00045119,36.875,-120.9386,256.9,CA,LOS BANOS ARBURUA RCH,,,NA,TRADITIONAL,891,8.91,S,25.1
675,USC00045120,36.9897,-120.9297,124.1,CA,LOS BANOS DET RESV,,,NA,TRADITIONAL,886,8.86,R,24.8
676,USC00045123,37.2319,-121.9592,111.3,CA,LOS GATOS,,,NA,TRADITIONAL,2308,23.08,R,37.8
677,USC00045147,34.5444,-119.7914,312.1,CA,LOS PRIETOS RS,,,NA,TRADITIONAL,2449,24.49,R,26
678,USC00045218,34.2383,-117.4708,832.1,CA,LYTLE CREEK RS,,,NA,TRADITIONAL,3628,36.28,R,31.3
679,USC00045233,36.9539,-120.0378,82.3,CA,MADERA,,,NA,TRADITIONAL,1223,12.23,R,28.3
680,USC00045311,40.5411,-121.5767,1752.6,CA,MANZANITA LAKE,,,NA,TRADITIONAL,4115,41.15,R,71.9
681,USC00045352,37.495,-119.9858,640.1,CA,MARIPOSA RS,,,NA,TRADITIONAL,3295,32.95,R,40
682,USC00045356,38.6919,-119.7803,1685.5,CA,MARKLEEVILLE,,,NA,TRADITIONAL,2188,21.88,R,41.3
683,USC00045360,38.4917,-122.1242,146.3,CA,MARKLEY COVE,,,NA,TRADITIONAL,2885,28.85,S,44
684,USC00045378,38.0131,-122.1142,12.2,CA,MARTINEZ WTP,,,NA,TRADITIONAL,2023,20.23,S,41.5
685,USC00045385,39.1458,-121.5853,17.4,CA,MARYSVILLE,,HCN,NA,TRADITIONAL,2204,22.04,P,42.5
686,USC00045400,37.885,-119.8561,1374.6,CA,MATHER,,,NA,TRADITIONAL,3690,36.9,R,46.3
687,USC00045449,41.2514,-122.1383,999.7,CA,MC CLOUD,,,NA,TRADITIONAL,4922,49.22,R,64.6
688,USC00045502,33.5714,-116.0767,-54.9,CA,MECCA FIRE STN,,,NA,TRADITIONAL,315,3.15,R,6.9
689,USC00045532,37.2858,-120.5117,46.6,CA,MERCED,,HCN,NA,TRADITIONAL,1304,13.04,R,32.6
690,USC00045598,38.725,-122.5514,340.8,CA,MIDDLETOWN 4SE,,,NA,TRADITIONAL,4320,43.2,R,44.7
691,USC00045679,40.3458,-121.6092,1485.9,CA,MINERAL,,,NA,TRADITIONAL,5756,57.56,R,72.5
692,USC00045721,34.9436,-115.5469,1325.9,CA,MITCHELL CAVERNS,,,NA,TRADITIONAL,1150,11.5,R,21.1
693,USC00045756,35.0492,-118.1619,833.6,CA,MOJAVE,,,NA,TRADITIONAL,667,6.67,R,13
694,USC00045790,34.0192,-118.1053,75,CA,MONTEBELLO,,,NA,TRADITIONAL,1532,15.32,R,19.9
695,USC00045795,36.5903,-121.91,117.3,CA,MONTEREY,,,NA,TRADITIONAL,2110,21.1,S,41.6
696,USC00045802,36.5928,-121.8556,37.2,CA,MONTEREY WFO,,,NA,TRADITIONAL,1784,17.84,R,39.1
697,USC00045866,35.3672,-120.8456,35.1,CA,MORRO BAY FIRE DEPT,,,NA,TRADITIONAL,1748,17.48,R,32.5
698,USC00045890,35.4703,-115.5436,1441.7,CA,MTN PASS,,,NA,TRADITIONAL,830,8.3,R,18.2
699,USC00045915,37.8792,-121.9303,661.4,CA,MT DIABLO JUNCTION,,,NA,TRADITIONAL,2504,25.04,S,46.2
700,USC00045933,37.3436,-121.6425,1282,CA,MT HAMILTON,,,NA,TRADITIONAL,2613,26.13,S,50.1
701,USC00046006,34.2308,-118.0711,1740.4,CA,MT WILSON CBS,,,NA,TRADITIONAL,3598,35.98,S,31.6
702,USC00046027,37.8978,-122.5689,67.1,CA,MUIR WOODS,,,NA,TRADITIONAL,3826,38.26,R,55.8
703,USC00046074,38.2778,-122.2647,10.7,CA,NAPA STATE HOSPITAL,,HCN,NA,TRADITIONAL,2771,27.71,S,47.2
704,USC00046136,39.2467,-121.0008,847.6,CA,NEVADA CITY,,,NA,TRADITIONAL,6239,62.39,S,65.9
705,USC00046144,37.5147,-122.0325,3,CA,NEWARK,,,NA,TRADITIONAL,1509,15.09,S,37.6
706,USC00046154,34.9456,-119.6828,658.4,CA,NEW CUYAMA FIRE STN,,,NA,TRADITIONAL,835,8.35,R,19.5
707,USC00046161,34.3933,-118.5939,538,CA,NEWHALL 5NW,,,NA,TRADITIONAL,1820,18.2,P,21.5
708,USC00046162,34.3869,-118.5342,375.8,CA,NEWHALL S FC32CE,,,NA,TRADITIONAL,1744,17.44,R,24.7
709,USC00046168,37.2811,-121.0178,27.4,CA,NEWMAN,,,NA,TRADITIONAL,1159,11.59,R,30
710,USC00046174,38.0047,-120.4864,292.6,CA,NEW MELONES DAM HQ,,,NA,TRADITIONAL,2998,29.98,R,51
711,USC00046175,33.6025,-117.8803,3,CA,NEWPORT BEACH HARBOR,,HCN,NA,TRADITIONAL,1062,10.62,R,20.6
712,USC00046194,38.9261,-121.5447,13.1,CA,NICOLAUS 2,,,NA,TRADITIONAL,1951,19.51,S,40.6
713,USC00046197,33.2775,-115.5239,-18.3,CA,NILAND,,,NA,TRADITIONAL,288,2.88,R,6.7
714,USC00046263,34.2447,-118.525,289,CA,NORTHRIDGE CAL STATE,,,NA,TRADITIONAL,1466,14.66,P,21.7
715,USC00046329,41.85,-122.8833,518.2,CA,OAK KNOLL RS #2,,,NA,TRADITIONAL,2500,25,R,53.1
716,USC00046336,37.7983,-122.2642,9.1,CA,OAKLAND MUSEUM,,,NA,TRADITIONAL,2396,23.96,R,43.9
717,USC00046370,38.3858,-122.9661,263.7,CA,OCCIDENTAL,,,NA,TRADITIONAL,5699,56.99,R,58.6
718,USC00046377,33.2097,-117.395,3,CA,OCEANSIDE MARINA,,,NA,TRADITIONAL,1032,10.32,R,21.7
719,USC00046390,32.7461,-116.0006,125,CA,OCOTILLO 2,,,NA,TRADITIONAL,369,3.69,R,8.9
720,USC00046399,34.4478,-119.2275,227.1,CA,OJAI,,HCN,NA,TRADITIONAL,2126,21.26,S,25.7
721,USC00046498,41.3619,-124.0192,48.8,CA,ORICK PRAIRIE CREEK PK,,,NA,TRADITIONAL,6637,66.37,R,92.4
722,USC00046506,39.7458,-122.1997,77.4,CA,ORLAND,,HCN,NA,TRADITIONAL,2301,23.01,S,43
723,USC00046508,41.3089,-123.5317,122.8,CA,ORLEANS,,HCN,NA,TRADITIONAL,5342,53.42,S,79.7
724,USC00046521,39.5178,-121.5531,52.1,CA,OROVILLE,,,NA,TRADITIONAL,3055,30.55,R,46.8
725,USC00046569,34.1981,-119.1753,14.9,CA,OXNARD,,,NA,TRADITIONAL,1589,15.89,R,23.2
726,USC00046572,34.2067,-119.1375,15.8,CA,OXNARD WFO,,,NA,TRADITIONAL,1533,15.33,R,22.3
727,USC00046597,38.7583,-120.5031,1051.6,CA,PACIFIC HOUSE,,,NA,TRADITIONAL,5441,54.41,S,63.4
728,USC00046599,37.5917,-122.4717,144.8,CA,PACIFICA 4 SSE,,,NA,TRADITIONAL,3193,31.93,R,46.8
729,USC00046602,34.3294,-118.4006,472.4,CA,PACOIMA DAM FC33A-E,,,NA,TRADITIONAL,1963,19.63,R,28
730,USC00046610,36.715,-121.3492,275.8,CA,PAICINES 4 W,,,NA,TRADITIONAL,1606,16.06,R,29.7
731,USC00046624,34.5883,-118.0939,794.3,CA,PALMDALE,,,NA,TRADITIONAL,740,7.4,S,15.6
732,USC00046635,33.8275,-116.5097,129.5,CA,PALM SPRINGS,,,NA,TRADITIONAL,483,4.83,S,10
733,USC00046646,37.4436,-122.1403,7.6,CA,PALO ALTO,,,NA,TRADITIONAL,1615,16.15,R,36.7
734,USC00046650,36.3503,-121.54,541,CA,PALOMA,,,NA,TRADITIONAL,2696,26.96,R,45.9
735,USC00046657,33.3781,-116.84,1691.6,CA,PALOMAR MTN OBSVTRY,,,NA,TRADITIONAL,3020,30.2,R,31.6
736,USC00046663,33.7997,-118.3911,67.1,CA,PALOS VERDES ES FC43D,,,NA,TRADITIONAL,1321,13.21,R,21.3
737,USC00046675,36.6067,-120.8842,426.7,CA,PANOCHE 2 W,,,NA,TRADITIONAL,1077,10.77,S,26.6
738,USC00046685,39.7536,-121.6239,533.4,CA,PARADISE,,,NA,TRADITIONAL,5813,58.13,S,62.3
739,USC00046699,34.2903,-114.1708,224.9,CA,PARKER RSVR,,,NA,TRADITIONAL,616,6.16,S,13.2
740,USC00046719,34.1481,-118.1444,263.3,CA,PASADENA,,HCN,NA,TRADITIONAL,2124,21.24,S,26.3
741,USC00046726,39.8875,-122.5539,230.1,CA,PASKENTA RS,,,NA,TRADITIONAL,2542,25.42,R,39.2
742,USC00046730,35.6278,-120.6856,222.5,CA,PASO ROBLES,,HCN,NA,TRADITIONAL,1520,15.2,S,29.3
743,USC00046773,34.5028,-117.8944,929.6,CA,PEARBLOSSOM,,,NA,TRADITIONAL,673,6.73,R,13.8
744,USC00046826,38.2578,-122.6078,6.1,CA,PETALUMA AP,,HCN,NA,TRADITIONAL,2665,26.65,S,48.2
745,USC00046896,36.8211,-119.3375,187.5,CA,PINE FLAT DAM,,,NA,TRADITIONAL,2076,20.76,S,34.8
746,USC00046926,36.4817,-121.1822,398.4,CA,PINNACLES NM,,,NA,TRADITIONAL,1724,17.24,R,34.1
747,USC00046940,34.4061,-118.7569,217,CA,PIRU 2 ESE,,,NA,TRADITIONAL,1863,18.63,R,24.8
748,USC00046943,35.1597,-120.6831,11.9,CA,PISMO BEACH,,,NA,TRADITIONAL,1689,16.89,R,29.7
749,USC00046944,41,-121.5,877.8,CA,PIT RIVER PH 1,,,NA,TRADITIONAL,1886,18.86,R,50.8
750,USC00046946,40.9867,-121.9769,444.4,CA,PIT RIVER PH 5,,,NA,TRADITIONAL,7822,78.22,S,75.6
751,USC00046960,38.6956,-120.8244,563.9,CA,PLACERVILLE,,,NA,TRADITIONAL,4001,40.01,R,51.7
752,USC00047050,34.0817,-117.7658,317,CA,POMONA/FAIRPLEX,,,NA,TRADITIONAL,1715,17.15,P,21.2
753,USC00047077,36.0678,-119.02,119.8,CA,PORTERVILLE,,,NA,TRADITIONAL,1122,11.22,R,27.8
754,USC00047085,39.8053,-120.4719,1478.3,CA,PORTOLA,,,NA,TRADITIONAL,2325,23.25,R,43.5
755,USC00047109,39.3619,-123.1286,310.3,CA,POTTER VALLEY P H,,,NA,TRADITIONAL,4674,46.74,S,62.8
756,USC00047111,33.0175,-117.0292,197.5,CA,POWAY VALLEY,,,NA,TRADITIONAL,1355,13.55,R,24.6
757,USC00047150,36.1883,-120.6953,701,CA,PRIEST VALLEY,,,NA,TRADITIONAL,2134,21.34,S,37.5
758,USC00047228,33.0114,-116.9081,448.1,CA,RAMONA FIRE DEPT,,,NA,TRADITIONAL,1539,15.39,R,26.8
759,USC00047253,35.3692,-117.6525,1088.1,CA,RANDSBURG,,,NA,TRADITIONAL,726,7.26,R,15.6
760,USC00047306,34.0528,-117.1894,401.7,CA,REDLANDS,,HCN,NA,TRADITIONAL,1326,13.26,S,25
761,USC00047339,37.4767,-122.2386,9.4,CA,REDWOOD CITY,,,NA,TRADITIONAL,2032,20.32,R,39
762,USC00047370,38.6944,-121.1611,89.9,CA,REPRESA,,,NA,TRADITIONAL,2233,22.33,S,41.2
763,USC00047404,40.0261,-123.7931,153.3,CA,RICHARDSON GR SP,,,NA,TRADITIONAL,6880,68.8,R,72
764,USC00047414,37.9192,-122.3772,6.1,CA,RICHMOND,,,NA,TRADITIONAL,2493,24.93,R,42.2
765,USC00047470,33.9511,-117.3881,256,CA,RIVERSIDE FIRE STN 3,,,NA,TRADITIONAL,1033,10.33,R,19.9
766,USC00047473,33.9669,-117.3614,300.5,CA,RIVERSIDE CITRUS EXP,,,NA,TRADITIONAL,1034,10.34,S,20.7
767,USC00047581,40.7956,-121.935,640.1,CA,ROUND MOUNTAIN,,,NA,TRADITIONAL,6359,63.59,R,70.7
768,USC00047641,39.4317,-120.2406,1931.5,CA,SAGEHEN CREEK,,,NA,TRADITIONAL,3256,32.56,R,53.9
769,USC00047643,38.5067,-122.4714,68.6,CA,SAINT HELENA,,,NA,TRADITIONAL,3664,36.64,R,49.7
770,USC00047668,36.6594,-121.6656,13.7,CA,SALINAS #2,,,NA,TRADITIONAL,1545,15.45,R,32.4
771,USC00047672,35.3372,-120.5039,416.1,CA,SALINAS DAM,,,NA,TRADITIONAL,2312,23.12,S,33.6
772,USC00047681,34.5853,-120.4083,77.7,CA,SALSIPUEDES GAGING STN,,,NA,TRADITIONAL,1896,18.96,S,29.7
773,USC00047689,38.5006,-120.2189,1127.8,CA,SALT SPRINGS PWR HOUSE,,,NA,TRADITIONAL,4889,48.89,R,58.9
774,USC00047723,34.1344,-117.2539,347.5,CA,SAN BERNARDINO F S 226,,,NA,TRADITIONAL,1601,16.01,R,25.7
775,USC00047731,36.4375,-121.7092,182.9,CA,SAN CLEMENTE DAM,,,NA,TRADITIONAL,2229,22.29,S,38.1
776,USC00047749,34.1053,-117.8019,292,CA,SAN DIMAS FIRE FC 95,,,NA,TRADITIONAL,1824,18.24,R,22.2
777,USC00047767,37.7281,-122.5053,2.4,CA,SAN FRANCISCO OCEANSD,,,NA,TRADITIONAL,2068,20.68,R,41.3
778,USC00047776,34.1553,-117.9078,226.8,CA,SAN GABRIEL CANYON PH,,,NA,TRADITIONAL,2410,24.1,S,29
779,USC00047779,34.2053,-117.8608,451.4,CA,SAN GABRIEL DM FC425BE,,,NA,TRADITIONAL,3023,30.23,R,30.5
780,USC00047785,34.1061,-118.1,137.2,CA,SAN GABRIEL FIRE DEPT,,,NA,TRADITIONAL,1790,17.9,S,22.7
781,USC00047807,37.3117,-122.3617,83.8,CA,SAN GREGORIO 2 SE,,,NA,TRADITIONAL,3078,30.78,R,53.3
782,USC00047813,33.7869,-116.9583,475.5,CA,SAN JACINTO RS,,,NA,TRADITIONAL,1251,12.51,R,23.7
783,USC00047821,37.3592,-121.9239,15.5,CA,SAN JOSE,,,NA,TRADITIONAL,1582,15.82,S,36.4
784,USC00047846,37.0533,-121.0578,84.4,CA,SAN LUIS DAM,,,NA,TRADITIONAL,1046,10.46,R,27.5
785,USC00047851,35.3039,-120.665,93.9,CA,SAN LUIS OBISPO POLY U,,HCN,NA,TRADITIONAL,2312,23.12,S,33.9
786,USC00047874,33.0956,-116.9975,128,CA,SAN PASQUAL ANIMAL PK,,,NA,TRADITIONAL,1402,14.02,R,26.4
787,USC00047880,37.9983,-122.5372,36.6,CA,SAN RAFAEL CIVIC CTR,,,NA,TRADITIONAL,3523,35.23,R,44
788,USC00047888,33.7442,-117.8667,41.1,CA,SANTA ANA FIRE STN,,,NA,TRADITIONAL,1363,13.63,S,23.3
789,USC00047902,34.4167,-119.6844,1.5,CA,SANTA BARBARA,,HCN,NA,TRADITIONAL,1943,19.43,R,24.6
790,USC00047916,36.9906,-121.9911,39.6,CA,SANTA CRUZ,,HCN,NA,TRADITIONAL,3135,31.35,S,45.9
791,USC00047933,35.3742,-120.6375,349.9,CA,SANTA MARGARITA BOOST,,,NA,TRADITIONAL,3299,32.99,S,38.3
792,USC00047953,34.0075,-118.4997,4.3,CA,SANTA MONICA PIER,,,NA,TRADITIONAL,1269,12.69,R,18.9
793,USC00047957,34.3119,-119.1331,72.2,CA,SANTA PAULA,,,NA,TRADITIONAL,1738,17.38,R,22
794,USC00047965,38.4381,-122.6978,53,CA,SANTA ROSA,,HCN,NA,TRADITIONAL,3220,32.2,S,51.2
795,USC00048014,34.5894,-118.4547,636.7,CA,SAUGUS PWR PLT 1,,,NA,TRADITIONAL,1863,18.63,S,26.7
796,USC00048045,40.4831,-124.1036,41.5,CA,SCOTIA,,,NA,TRADITIONAL,4945,49.45,S,76.7
797,USC00048135,40.7142,-122.4161,327.7,CA,SHASTA DAM,,,NA,TRADITIONAL,6582,65.82,S,66.9
798,USC00048163,40.0331,-124.0728,75,CA,SHELTER COVE AVIATION,,,NA,TRADITIONAL,6199,61.99,R,78.5
799,USC00048200,35.9717,-116.2708,471.2,CA,SHOSHONE,,,NA,TRADITIONAL,483,4.83,R,13
800,USC00048207,39.5678,-120.6228,1292.4,CA,SIERRA CITY,,,NA,TRADITIONAL,6938,69.38,R,69.8
801,USC00048317,33.8725,-116.6797,591.3,CA,SNOW CREEK UPPER,,,NA,TRADITIONAL,1273,12.73,R,18.4
802,USC00048351,38.2994,-122.4622,29.6,CA,SONOMA,,,NA,TRADITIONAL,3143,31.43,R,48.7
803,USC00048353,37.9672,-120.3872,510.5,CA,SONORA,,,NA,TRADITIONAL,3471,34.71,R,46.8
804,USC00048380,37.5072,-119.6331,1538.3,CA,SO ENTR YOSEMITE NP,,,NA,TRADITIONAL,4125,41.25,R,48.2
805,USC00048406,37.1683,-118.5706,2920,CA,SOUTH LAKE,,,NA,TRADITIONAL,1877,18.77,R,47.6
806,USC00048490,39.8778,-123.7275,260,CA,STANDISH HICKEY SP,,,NA,TRADITIONAL,7113,71.13,R,73
807,USC00048560,37.9994,-121.3178,3.7,CA,STOCKTON FIRE STA 4,,,NA,TRADITIONAL,1777,17.77,R,38.4
808,USC00048580,39.3753,-122.5461,356.6,CA,STONYFORD,,,NA,TRADITIONAL,2308,23.08,R,37.3
809,USC00048587,39.5858,-122.5339,243.8,CA,STONY GORGE RSVR,,,NA,TRADITIONAL,2225,22.25,S,42.9
810,USC00048606,39.5631,-121.1078,1160.7,CA,STRAWBERRY VALLEY,,,NA,TRADITIONAL,8282,82.82,S,73.3
811,USC00048655,33.7156,-117.19,432.8,CA,SUN CITY,,,NA,TRADITIONAL,1111,11.11,R,19.2
812,USC00048702,40.4167,-120.6631,1275.3,CA,SUSANVILLE 2SW,,HCN,NA,TRADITIONAL,1199,11.99,R,27.9
813,USC00048752,35.1503,-119.43,235.6,CA,TAFT,,,NA,TRADITIONAL,636,6.36,R,15.2
814,USC00048758,39.1678,-120.1428,1898.9,CA,TAHOE CITY,,HCN,NA,TRADITIONAL,3426,34.26,S,55.5
815,USC00048826,35.1333,-118.45,1224.4,CA,TEHACHAPI,,,NA,TRADITIONAL,1134,11.34,R,27.9
816,USC00048839,35.0233,-118.7497,434.3,CA,TEJON RANCHO,,HCN,NA,TRADITIONAL,1184,11.84,R,26.4
817,USC00048873,40.8667,-120.4333,1615.4,CA,TERMO 1 E,,,NA,TRADITIONAL,975,9.75,R,32.1
818,USC00048917,36.465,-118.8619,347.5,CA,THREE RVRS EDISON PH 1,,,NA,TRADITIONAL,2507,25.07,R,36.7
819,USC00048928,38.4461,-120.4992,717.8,CA,TIGER CREEK PH,,,NA,TRADITIONAL,4988,49.88,R,58.6
820,USC00048967,34.0842,-118.5989,227.1,CA,TOPANGA PATROL FC-6,,,NA,TRADITIONAL,2394,23.94,R,25.2
821,USC00049001,37.7967,-121.5828,18.6,CA,TRACY PUMPING PLT,,,NA,TRADITIONAL,1288,12.88,R,32.8
822,USC00049026,40.7264,-122.7947,567.2,CA,TRINITY RIVER HATCHERY,,,NA,TRADITIONAL,3346,33.46,S,62.3
823,USC00049035,35.7636,-117.3908,516.6,CA,TRONA,,,NA,TRADITIONAL,388,3.88,S,9.5
824,USC00049043,39.3331,-120.173,1774.9,CA,TRUCKEE RS,,,NA,TRADITIONAL,3124,31.24,S,53.8
825,USC00049053,41.96,-121.4744,1229.9,CA,TULELAKE,,,NA,TRADITIONAL,1151,11.51,S,35.6
826,USC00049073,37.5006,-120.855,35.1,CA,TURLOCK #2,,,NA,TRADITIONAL,1243,12.43,S,30.8
827,USC00049087,33.7025,-117.7539,71.6,CA,TUSTIN IRVINE RCH,,HCN,NA,TRADITIONAL,1431,14.31,R,24
828,USC00049099,34.1281,-116.0369,602,CA,TWENTYNINE PALMS,,,NA,TRADITIONAL,446,4.46,S,10.2
829,USC00049105,38.7086,-120.0403,2438.4,CA,TWIN LAKES,,,NA,TRADITIONAL,4701,47.01,R,70.4
830,USC00049111,34.9881,-120.3211,177.4,CA,TWITCHELL DAM,,,NA,TRADITIONAL,1819,18.19,R,29.7
831,USC00049122,39.1467,-123.2103,193.9,CA,UKIAH,,HCN,NA,TRADITIONAL,3993,39.93,S,56.8
832,USC00049124,39.1267,-123.2719,555.7,CA,UKIAH 4 WSW,,,NA,TRADITIONAL,5102,51.02,R,68.7
833,USC00049152,34.0697,-118.4428,131.1,CA,U C L A,,,NA,TRADITIONAL,1863,18.63,S,23.7
834,USC00049185,37.7719,-122.1675,120.1,CA,UPPER SAN LEANDRO FILTERS,,,NA,TRADITIONAL,2669,26.69,S,46.3
835,USC00049200,38.3956,-121.9608,33.5,CA,VACAVILLE,,HCN,NA,TRADITIONAL,2612,26.12,R,40.7
836,USC00049285,34.2825,-119.2919,32,CA,VENTURA,,,NA,TRADITIONAL,1648,16.48,P,22.9
837,USC00049325,34.535,-117.3058,871.1,CA,VICTORVILLE PUMP PT,,,NA,TRADITIONAL,615,6.15,R,13.7
838,USC00049345,34.4883,-118.1419,962.3,CA,VINCENT FS FC 120,,,NA,TRADITIONAL,845,8.45,R,18.2
839,USC00049351,39.8056,-120.1858,1508.8,CA,VINTON,,,NA,TRADITIONAL,1429,14.29,S,35.5
840,USC00049367,36.3283,-119.2992,99.1,CA,VISALIA,,,NA,TRADITIONAL,1093,10.93,R,27.1
841,USC00049378,33.2294,-117.2269,155.4,CA,VISTA 2 NNE,,,NA,TRADITIONAL,1314,13.14,R,24.9
842,USC00049390,40.4583,-121.8664,676.7,CA,VOLTA PH,,,NA,TRADITIONAL,3539,35.39,S,63.1
843,USC00049431,34.0017,-117.8658,148.7,CA,WALNUT NI FC102C,,,NA,TRADITIONAL,1549,15.49,R,23.5
844,USC00049440,38.7161,-122.9975,68.3,CA,WARM SPRINGS DAM,,,NA,TRADITIONAL,4611,46.11,R,56
845,USC00049452,35.5892,-119.3519,88.7,CA,WASCO,,HCN,NA,TRADITIONAL,726,7.26,S,19.4
846,USC00049473,36.9308,-121.7692,29,CA,WATSONVILLE WTR WKS,,,NA,TRADITIONAL,2350,23.5,S,40.4
847,USC00049490,40.7222,-122.9331,599.8,CA,WEAVERVILLE,,HCN,NA,TRADITIONAL,3886,38.86,R,57.6
848,USC00049582,38.3775,-120.5453,845.8,CA,WEST POINT,,,NA,TRADITIONAL,3994,39.94,R,48.4
849,USC00049621,40.6117,-122.5281,394.7,CA,WHISKEYTOWN RSVR,,,NA,TRADITIONAL,6565,65.65,S,65
850,USC00049660,33.9758,-118.0222,135.9,CA,WHITTIER CY YD FC106C,,,NA,TRADITIONAL,1403,14.03,R,21.7
851,USC00049671,36.2656,-117.1853,1249.7,CA,WILDROSE RS,,,NA,TRADITIONAL,668,6.68,R,16.2
852,USC00049684,39.4194,-123.3425,412.4,CA,WILLITS 1 NE,,,NA,TRADITIONAL,5068,50.68,R,66.8
853,USC00049742,38.5228,-121.9683,41.1,CA,WINTERS,,,NA,TRADITIONAL,2413,24.13,S,40
854,USC00049781,38.6828,-121.7942,21,CA,WOODLAND 1 WNW,,,NA,TRADITIONAL,2134,21.34,R,39.9
855,USC00049792,37.4286,-122.2567,115.8,CA,WOODSIDE FIRE STN 1,,,NA,TRADITIONAL,2961,29.61,R,45.7
856,USC00049822,34.3617,-117.6386,1828.8,CA,WRIGHTWOOD,,,NA,TRADITIONAL,2261,22.61,R,26.3
857,USC00049855,37.75,-119.5897,1224.7,CA,YOSEMITE PARK HQ,,HCN,NA,TRADITIONAL,3673,36.73,R,50.4
858,USC00049866,41.7036,-122.6408,800.1,CA,YREKA,,HCN,NA,TRADITIONAL,1995,19.95,R,46.7
859,USC00050102,37.4011,-104.6547,1950.7,CO,AGUILAR,,,NA,TRADITIONAL,1944,19.44,R,47.2
860,USC00050105,37.3169,-104.9503,2634.7,CO,AGUILAR 18WSW,,,NA,TRADITIONAL,2143,21.43,R,51.7
861,USC00050109,40.155,-103.1417,1383.8,CO,AKRON 4 E,,,NA,TRADITIONAL,1652,16.52,S,39.1
862,USC00050214,39.5008,-108.3794,1730.3,CO,ALTENBERN,,,NA,TRADITIONAL,1792,17.92,S,53.2
863,USC00050263,38.9933,-105.8919,2718.8,CO,ANTERO RSVR,,,NA,TRADITIONAL,1086,10.86,S,32.5
864,USC00050304,38.8528,-102.1764,1225.3,CO,ARAPAHOE,,,NA,TRADITIONAL,1817,18.17,R,38.2
865,USC00050372,39.1853,-106.8381,2455.5,CO,ASPEN 1 SW,,,NA,TRADITIONAL,2493,24.93,R,79.4
866,USC00050454,39.4047,-105.4767,2356.1,CO,BAILEY,,,NA,TRADITIONAL,1773,17.73,S,50
867,USC00050776,37.4786,-105.5717,2349.7,CO,BLANCA 4 NW,,,NA,TRADITIONAL,987,9.87,R,29.9
868,USC00050797,38.4667,-107.1678,2306.7,CO,BLUE MESA LAKE,,,NA,TRADITIONAL,945,9.45,R,30.7
869,USC00050834,39.6567,-102.1192,1132.9,CO,BONNY DAM 2NE,,,NA,TRADITIONAL,1810,18.1,R,37.9
870,USC00050848,39.9919,-105.2667,1671.5,CO,BOULDER,,HCN,NA,TRADITIONAL,2068,20.68,S,48.7
871,USC00050895,38.4597,-102.4361,1196.3,CO,BRANDON,,,NA,TRADITIONAL,1547,15.47,R,32.1
872,USC00050909,39.4861,-106.0431,2920,CO,BRECKENRIDGE,,,NA,TRADITIONAL,2043,20.43,R,65.3
873,USC00050945,40.635,-104.3267,1473.4,CO,BRIGGSDALE,,,NA,TRADITIONAL,1346,13.46,R,34.2
874,USC00050950,39.9436,-104.8361,1528.9,CO,BRIGHTON 3 SE,,,NA,TRADITIONAL,1473,14.73,R,34.4
875,USC00051017,40.8008,-108.9172,1631.9,CO,BROWNS PARK REFUGE,,,NA,TRADITIONAL,853,8.53,R,29.5
876,USC00051060,40.6158,-105.2969,2255.5,CO,BUCKHORN MTN 1E,,,NA,TRADITIONAL,2162,21.62,R,52.7
877,USC00051071,38.8247,-106.1275,2421.9,CO,BUENA VISTA 2S,,,NA,TRADITIONAL,1059,10.59,S,32
878,USC00051121,39.3061,-102.2608,1289.3,CO,BURLINGTON,,,NA,TRADITIONAL,1765,17.65,R,37.5
879,USC00051179,39.7403,-104.1275,1554.5,CO,BYERS 5 ENE,,,NA,TRADITIONAL,1569,15.69,S,39.3
880,USC00051186,39.6553,-105.7089,3054.1,CO,CABIN CREEK,,,NA,TRADITIONAL,2110,21.1,R,61.2
881,USC00051268,37.0158,-102.555,1255.2,CO,CAMPO 7 S,,,NA,TRADITIONAL,1696,16.96,S,34.7
882,USC00051294,38.46,-105.2256,1635.6,CO,CANON CITY,,HCN,NA,TRADITIONAL,1347,13.47,S,36.4
883,USC00051401,39.4106,-104.9058,1885.2,CO,CASTLE ROCK,,,NA,TRADITIONAL,1879,18.79,R,44.1
884,USC00051440,38.9,-107.9333,1903.2,CO,CEDAREDGE,,,NA,TRADITIONAL,1476,14.76,R,48.5
885,USC00051458,37.7067,-106.1444,2338.7,CO,CENTER 4 SSW,,,NA,TRADITIONAL,704,7.04,R,22.1
886,USC00051528,39.2203,-105.2783,2097,CO,CHEESMAN,,HCN,NA,TRADITIONAL,1707,17.07,S,47.7
887,USC00051539,38.115,-103.51,1264,CO,CHERAW 1 N,,,NA,TRADITIONAL,1322,13.22,R,30.4
888,USC00051564,38.8219,-102.3508,1313.7,CO,CHEYENNE WELLS,,HCN,NA,TRADITIONAL,1676,16.76,S,36
889,USC00051609,38.4442,-107.5592,2137,CO,CIMARRON,,,NA,TRADITIONAL,1390,13.9,R,44.7
890,USC00051660,39.3672,-106.1897,3442.4,CO,CLIMAX,,,NA,TRADITIONAL,2398,23.98,R,79.3
891,USC00051681,39.8958,-105.3847,2728,CO,COAL CREEK CANYON,,,NA,TRADITIONAL,2463,24.63,R,62.2
892,USC00051713,38.4461,-106.7611,2439,CO,COCHETOPA CREEK,,,NA,TRADITIONAL,1137,11.37,S,39.7
893,USC00051741,39.2425,-107.9631,1822.7,CO,COLLBRAN,,HCN,NA,TRADITIONAL,1560,15.6,R,49.8
894,USC00051772,39.1014,-108.7339,1762,CO,COLORADO NM,,,NA,TRADITIONAL,1137,11.37,R,35.4
895,USC00051886,37.3444,-108.5931,1879.7,CO,CORTEZ,,,NA,TRADITIONAL,1257,12.57,S,38
896,USC00051932,40.4506,-107.5894,1980,CO,CRAIG 4 SW,,,NA,TRADITIONAL,1672,16.72,R,48.5
897,USC00051939,37.8531,-106.9253,2698.1,CO,CREEDE,,,NA,TRADITIONAL,1547,15.47,R,49.3
898,USC00051959,38.8739,-106.9769,2702.1,CO,CRESTED BUTTE,,,NA,TRADITIONAL,2413,24.13,S,73.7
899,USC00051964,37.9806,-105.6897,2439.6,CO,CRESTONE 2 SE,,,NA,TRADITIONAL,1326,13.26,S,39
900,USC00051996,40.86,-102.8031,1130.5,CO,CROOK,,,NA,TRADITIONAL,1779,17.79,R,38
901,USC00052184,37.6742,-106.3247,2396.9,CO,DEL NORTE 2E,,HCN,NA,TRADITIONAL,1056,10.56,S,32
902,USC00052192,38.7531,-108.0783,1502.7,CO,DELTA,,,NA,TRADITIONAL,846,8.46,R,25.4
903,USC00052281,39.6261,-106.0353,2763,CO,DILLON 1 E,,HCN,NA,TRADITIONAL,1458,14.58,S,48.4
904,USC00052286,40.2442,-108.9719,1820.3,CO,DINOSAUR NATL MONUMNT,,,NA,TRADITIONAL,1140,11.4,R,35.2
905,USC00052326,37.4753,-108.4975,2118.4,CO,DOLORES,,,NA,TRADITIONAL,1881,18.81,R,51.4
906,USC00052441,37.2911,-107.8564,2060.8,CO,DURANGO,,,NA,TRADITIONAL,2100,21,R,52
907,USC00052446,38.4758,-102.7769,1283.8,CO,EADS,,HCN,NA,TRADITIONAL,1568,15.68,R,33.9
908,USC00052494,39.1092,-104.5997,2197.6,CO,EASTONVILLE 2 NNW,,,NA,TRADITIONAL,2130,21.3,S,51.9
909,USC00052631,39.3811,-104.6292,2028.1,CO,ELIZABETH 2NW,,,NA,TRADITIONAL,1974,19.74,R,43.8
910,USC00052759,40.3767,-105.4858,2279.9,CO,ESTES PARK,,,NA,TRADITIONAL,1647,16.47,R,44.5
911,USC00052790,39.6381,-105.315,2129,CO,EVERGREEN,,,NA,TRADITIONAL,1925,19.25,R,49.9
912,USC00052932,39.2814,-103.0614,1499.6,CO,FLAGLER 1S,,,NA,TRADITIONAL,1672,16.72,R,36.5
913,USC00052944,40.6844,-102.8397,1292.4,CO,FLEMING,,,NA,TRADITIONAL,1812,18.12,R,38.1
914,USC00052947,40.6483,-102.8594,1297.2,CO,FLEMING 3SW,,,NA,TRADITIONAL,1869,18.69,R,39
915,USC00053005,40.6147,-105.1314,1525.2,CO,FT COLLINS,,HCN,NA,TRADITIONAL,1610,16.1,S,36.9
916,USC00053006,40.5756,-105.0236,1499.6,CO,FT COLLINS 4 E,,,NA,TRADITIONAL,1497,14.97,R,35
917,USC00053016,37.2308,-108.0514,2328.7,CO,FT LEWIS,,,NA,TRADITIONAL,1815,18.15,R,47.3
918,USC00053038,40.26,-103.8156,1328.6,CO,FT MORGAN,,HCN,NA,TRADITIONAL,1422,14.22,R,34.6
919,USC00053063,38.6778,-104.7014,1694.7,CO,FOUNTAIN,,,NA,TRADITIONAL,1882,18.82,R,42.3
920,USC00053079,38.1236,-104.0083,1319.8,CO,FOWLER 1 SE,,,NA,TRADITIONAL,1188,11.88,S,29.2
921,USC00053116,39.9425,-105.8172,2609.1,CO,FRASER,,,NA,TRADITIONAL,1929,19.29,R,64.4
922,USC00053146,39.1653,-108.7331,1373.1,CO,FRUITA,,HCN,NA,TRADITIONAL,966,9.66,R,29.7
923,USC00053246,38.6825,-108.9722,1400.6,CO,GATEWAY,,,NA,TRADITIONAL,1212,12.12,R,36.7
924,USC00053258,39.2775,-103.4958,1709.3,CO,GENOA,,,NA,TRADITIONAL,1661,16.61,R,38.5
925,USC00053261,39.7053,-105.6997,2596.9,CO,GEORGETOWN,,,NA,TRADITIONAL,1835,18.35,R,56.1
926,USC00053359,39.5181,-107.3172,1796.8,CO,GLENWOOD SPGS #2,,,NA,TRADITIONAL,1715,17.15,R,49.9
927,USC00053489,39.0422,-108.4664,1450.8,CO,GRAND JUNCTION 6 ESE,,,NA,TRADITIONAL,925,9.25,S,30
928,USC00053496,40.2669,-105.8322,2657.9,CO,GRAND LAKE 1 NW,,,NA,TRADITIONAL,1979,19.79,R,63.1
929,USC00053500,40.185,-105.8667,2526.2,CO,GRAND LAKE 6 SSW,,,NA,TRADITIONAL,1437,14.37,S,47.4
930,USC00053530,39.4608,-105.6786,2644.1,CO,GRANT,,,NA,TRADITIONAL,1580,15.8,R,48.9
931,USC00053541,37.7333,-105.5119,2494.2,CO,GREAT SAND DUNES NM,,,NA,TRADITIONAL,1241,12.41,R,37.4
932,USC00053553,40.4022,-104.6992,1437.1,CO,GREELEY UNC,,,NA,TRADITIONAL,1469,14.69,S,36
933,USC00053592,39.8789,-106.3333,2359.2,CO,GREEN MT DAM,,,NA,TRADITIONAL,1446,14.46,R,46.2
934,USC00053629,39.9364,-105.3503,2429.3,CO,GROSS RSVR,,,NA,TRADITIONAL,2126,21.26,S,52.9
935,USC00053656,38.6753,-105.3922,2619.8,CO,GUFFEY 10 SE,,,NA,TRADITIONAL,1653,16.53,R,48.7
936,USC00053662,38.5253,-106.9672,2323.2,CO,GUNNISON 3SW,,HCN,NA,TRADITIONAL,1064,10.64,R,35
937,USC00053738,40.3722,-107.6117,1898.9,CO,HAMILTON,,,NA,TRADITIONAL,1986,19.86,R,62.8
938,USC00053828,38.4467,-103.1606,1378.3,CO,HASWELL,,,NA,TRADITIONAL,1534,15.34,S,34.1
939,USC00053867,40.4928,-107.2547,1971.1,CO,HAYDEN,,,NA,TRADITIONAL,1853,18.53,C,59.6
940,USC00053951,37.7717,-107.1097,2757.8,CO,HERMIT 7 ESE,,HCN,NA,TRADITIONAL,1414,14.14,R,42
941,USC00054054,40.9678,-106.0003,2365.2,CO,HOHNHOLZ RCH,,,NA,TRADITIONAL,1523,15.23,R,45.6
942,USC00054076,38.0494,-102.1236,1033.3,CO,HOLLY,,HCN,NA,TRADITIONAL,1766,17.66,R,36.6
943,USC00054082,40.5453,-102.3411,1152.1,CO,HOLYOKE,,,NA,TRADITIONAL,1860,18.6,S,40.9
944,USC00054135,40.5831,-105.6319,2901.7,CO,HOURGLASS RSVR,,,NA,TRADITIONAL,1690,16.9,R,57.9
945,USC00054172,39.1439,-103.4897,1531.6,CO,HUGO 1 NW,,,NA,TRADITIONAL,1573,15.73,R,35.8
946,USC00054242,39.7033,-102.2939,1208.5,CO,IDALIA,,,NA,TRADITIONAL,2009,20.09,R,43.6
947,USC00054293,39.5736,-105.2197,2145.8,CO,INTER CANYON,,,NA,TRADITIONAL,2234,22.34,R,53.2
948,USC00054380,39.6553,-102.6803,1295.7,CO,JOES,,,NA,TRADITIONAL,1782,17.82,R,39.7
949,USC00054388,38.0633,-102.9297,1162.5,CO,JOHN MARTIN DAM,,,NA,TRADITIONAL,1408,14.08,R,25
950,USC00054413,40.9867,-102.2706,1057.4,CO,JULESBURG,,,NA,TRADITIONAL,1815,18.15,R,40.2
951,USC00054444,38.7411,-103.5428,1546.9,CO,KARVAL,,,NA,TRADITIONAL,1447,14.47,S,33.2
952,USC00054452,39.49,-105.0953,1702.9,CO,KASSLER,,,NA,TRADITIONAL,1831,18.31,S,46
953,USC00054538,37.4536,-103.3219,1581.9,CO,KIM 15 NNE,,,NA,TRADITIONAL,1684,16.84,R,39.4
954,USC00054546,37.115,-103.2986,1615.4,CO,KIM 10SSE,,,NA,TRADITIONAL,1676,16.76,R,37.8
955,USC00054603,38.7658,-102.8031,1316.7,CO,KIT CARSON,,,NA,TRADITIONAL,1605,16.05,R,34.2
956,USC00054606,38.8867,-102.7233,1405.1,CO,KIT CARSON 9NNE,,,NA,TRADITIONAL,1751,17.51,R,35.6
957,USC00054664,40.0575,-106.3681,2273.8,CO,KREMMLING,,,NA,TRADITIONAL,1199,11.99,R,38.3
958,USC00054724,37.9825,-103.5439,1277.7,CO,LA JUNTA,,,NA,TRADITIONAL,1441,14.41,R,34
959,USC00054726,37.7511,-103.4775,1283.2,CO,LA JUNTA 20 S,,,NA,TRADITIONAL,1529,15.29,S,35
960,USC00054734,38.0247,-107.3147,2641.7,CO,LAKE CITY,,,NA,TRADITIONAL,1477,14.77,R,50
961,USC00054742,38.9075,-105.4706,2606,CO,LAKE GEORGE 8 SW,,,NA,TRADITIONAL,1254,12.54,S,36.9
962,USC00054762,39.7489,-105.1206,1719.1,CO,LAKEWOOD,,,NA,TRADITIONAL,1732,17.32,R,42.1
963,USC00054770,38.0936,-102.6306,1105.5,CO,LAMAR,,HCN,NA,TRADITIONAL,1584,15.84,S,35.1
964,USC00054834,38.0636,-103.2153,1185.7,CO,LAS ANIMAS,,HCN,NA,TRADITIONAL,1373,13.73,S,32.6
965,USC00054934,37.3769,-107.6556,2549.7,CO,LEMON DAM,,,NA,TRADITIONAL,3030,30.3,S,70.8
966,USC00054945,40.4897,-103.0822,1386.8,CO,LEROY 9 WSW,,,NA,TRADITIONAL,1752,17.52,S,41.6
967,USC00055025,39.7556,-103.4986,1478.6,CO,LINDON 5 WNW,,,NA,TRADITIONAL,1538,15.38,R,36.6
968,USC00055116,40.1589,-105.0736,1508.8,CO,LONGMONT 2 ESE,,,NA,TRADITIONAL,1424,14.24,R,37.5
969,USC00055236,40.435,-105.085,1548.4,CO,LOVELAND 2N,,,NA,TRADITIONAL,1576,15.76,R,36.9
970,USC00055322,37.1742,-105.9392,2343.9,CO,MANASSA,,HCN,NA,TRADITIONAL,834,8.34,R,26
971,USC00055327,37.335,-108.3161,2102.2,CO,MANCOS,,,NA,TRADITIONAL,1692,16.92,R,47.5
972,USC00055414,40.0239,-107.4336,2377.4,CO,MARVINE RCH,,,NA,TRADITIONAL,2659,26.59,R,72.8
973,USC00055422,40.2844,-108.605,1871.5,CO,MASSADONA 3E,,,NA,TRADITIONAL,1457,14.57,R,41.7
974,USC00055446,40.5158,-108.0947,1811.7,CO,MAYBELL,,,NA,TRADITIONAL,1304,13.04,R,39.8
975,USC00055484,40.0358,-107.9058,1898.6,CO,MEEKER,,,NA,TRADITIONAL,1745,17.45,R,50.8
976,USC00055507,39.3619,-106.7422,2385.1,CO,MEREDITH,,,NA,TRADITIONAL,1676,16.76,R,50.2
977,USC00055531,37.1986,-108.4883,2160.1,CO,MESA VERDE NP,,,NA,TRADITIONAL,1850,18.5,S,48
978,USC00055706,37.5811,-106.1872,2344.5,CO,MONTE VISTA 2W,,,NA,TRADITIONAL,901,9.01,R,27.5
979,USC00055722,38.4858,-107.8792,1764.5,CO,MONTROSE #2,,HCN,NA,TRADITIONAL,1019,10.19,S,33.3
980,USC00055734,39.1025,-104.8675,2158,CO,MONUMENT,,,NA,TRADITIONAL,2195,21.95,R,57.6
981,USC00055797,39.6561,-105.5997,3240,CO,MT EVANS RSCH STN,,,NA,TRADITIONAL,3082,30.82,R,86.2
982,USC00055922,40.6089,-103.8461,1457.9,CO,NEW RAYMER,,,NA,TRADITIONAL,1560,15.6,R,36.5
983,USC00055934,40.9319,-103.8678,1578.9,CO,NEW RAYMER 21 N,,,NA,TRADITIONAL,1678,16.78,R,40
984,USC00055970,37.8139,-109.0108,2036.1,CO,NORTHDALE,,,NA,TRADITIONAL,1226,12.26,R,36.4
985,USC00055984,39.8989,-105.0133,1648.1,CO,NORTHGLENN,,,NA,TRADITIONAL,1434,14.34,R,36.4
986,USC00056012,38.1317,-108.2864,2139.7,CO,NORWOOD,,,NA,TRADITIONAL,1644,16.44,R,48.8
987,USC00056023,40.7064,-104.7833,1583.7,CO,NUNN,,,NA,TRADITIONAL,1422,14.22,R,35.3
988,USC00056131,38.2222,-103.7219,1315.2,CO,ORDWAY 2 ENE,,,NA,TRADITIONAL,1123,11.23,R,24.8
989,USC00056136,38.53,-103.7058,1453,CO,ORDWAY 21 N,,,NA,TRADITIONAL,1255,12.55,S,30.5
990,USC00056203,38.0206,-107.6686,2389.6,CO,OURAY,,,NA,TRADITIONAL,2466,24.66,R,73.9
991,USC00056258,37.2425,-107.0169,2209.8,CO,PAGOSA SPRINGS,,,NA,TRADITIONAL,2097,20.97,R,61.2
992,USC00056266,39.1136,-108.3506,1448.1,CO,PALISADE,,,NA,TRADITIONAL,1133,11.33,S,35.4
993,USC00056306,38.8522,-107.6236,1699.6,CO,PAONIA 1 SW,,,NA,TRADITIONAL,1512,15.12,S,47.8
994,USC00056318,38.3833,-108.9833,1685.5,CO,PARADOX 1 W,,,NA,TRADITIONAL,1575,15.75,R,45.7
995,USC00056326,39.5289,-104.6567,1923.3,CO,PARKER 6 E,,,NA,TRADITIONAL,1585,15.85,R,40.7
996,USC00056524,37.9944,-108.0211,2301.2,CO,PLACERVILLE 3SE,,,NA,TRADITIONAL,1723,17.23,R,59.7
997,USC00056765,38.2597,-104.7169,1479.8,CO,PUEBLO RSVR,,,NA,TRADITIONAL,1302,13.02,S,33.1
998,USC00056797,40.2411,-107.0864,2441.1,CO,PYRAMID,,,NA,TRADITIONAL,2232,22.32,R,69.1
999,USC00056816,39.8297,-105.2353,1798.3,CO,RALSTON RSVR,,,NA,TRADITIONAL,1842,18.42,S,46.7
1000,USC00056832,40.0894,-108.7717,1610.9,CO,RANGELY 1 E,,,NA,TRADITIONAL,1146,11.46,S,35.4
1001,USC00056977,37.7167,-105.3167,2407.9,CO,RED WING 1 WSW,,,NA,TRADITIONAL,1301,13.01,R,39.6
1002,USC00057017,37.7131,-108.0386,2682.2,CO,RICO,,,NA,TRADITIONAL,2496,24.96,R,70.2
1003,USC00057020,38.1508,-107.7572,2144,CO,RIDGWAY,,,NA,TRADITIONAL,1701,17.01,R,49.8
1004,USC00057031,39.5447,-107.7853,1656.6,CO,RIFLE,,,NA,TRADITIONAL,1346,13.46,R,44.8
1005,USC00057050,37.7256,-107.2678,2952.9,CO,RIO GRANDE RSVR,,,NA,TRADITIONAL,2039,20.39,R,62.1
1006,USC00057167,38.0392,-103.6933,1271,CO,ROCKY FORD 2 SE,,HCN,NA,TRADITIONAL,1242,12.42,S,30.2
1007,USC00057287,38.8611,-104.0939,1845.3,CO,RUSH 1N,,,NA,TRADITIONAL,1495,14.95,R,37.9
1008,USC00057296,40.7022,-105.7106,2347,CO,RUSTIC 9WSW,,,NA,TRADITIONAL,1288,12.88,R,40.7
1009,USC00057309,38.8417,-104.9742,2758.4,CO,RUXTON PARK,,,NA,TRADITIONAL,2444,24.44,R,61.1
1010,USC00057317,37.9136,-104.9483,2176.6,CO,RYE 1SW,,,NA,TRADITIONAL,2511,25.11,R,59.5
1011,USC00057337,38.0858,-106.1444,2347.3,CO,SAGUACHE,,HCN,NA,TRADITIONAL,850,8.5,R,26.3
1012,USC00057370,38.5328,-106.0158,2182.4,CO,SALIDA,,,NA,TRADITIONAL,952,9.52,R,28
1013,USC00057430,37.1953,-105.4244,2421,CO,SAN LUIS 1 S,,,NA,TRADITIONAL,1044,10.44,R,30.3
1014,USC00057460,38.4039,-106.4236,2578.6,CO,SARGENTS,,,NA,TRADITIONAL,1566,15.66,S,52.1
1015,USC00057510,39.4036,-104.9522,1821.2,CO,SEDALIA 4 SSE,,,NA,TRADITIONAL,1794,17.94,S,42.6
1016,USC00057515,40.8592,-102.5167,1216.2,CO,SEDGWICK 5 S,,,NA,TRADITIONAL,1861,18.61,S,42.6
1017,USC00057560,39.5719,-103.2922,1524,CO,SHAW 4ENE,,,NA,TRADITIONAL,1662,16.62,R,40.1
1018,USC00057572,37.715,-105.2353,2363.4,CO,SHEEP MTN,,,NA,TRADITIONAL,1319,13.19,R,40.2
1019,USC00057618,39.5717,-107.2264,1807.5,CO,SHOSHONE,,,NA,TRADITIONAL,2190,21.9,R,62.6
1020,USC00057656,37.8089,-107.6633,2830.1,CO,SILVERTON,,,NA,TRADITIONAL,2649,26.49,R,74
1021,USC00057816,39.4,-105.1833,1888.8,CO,SOUTH PLATTE,,,NA,TRADITIONAL,1560,15.6,R,42.8
1022,USC00057848,40.4725,-106.4475,2555.7,CO,SPICER,,,NA,TRADITIONAL,1479,14.79,R,50.4
1023,USC00057866,37.3694,-102.7428,1408.8,CO,SPRINGFIELD 7 WSW,,,NA,TRADITIONAL,1685,16.85,R,38.3
1024,USC00057936,40.4883,-106.8233,2092.8,CO,STEAMBOAT SPRINGS,,HCN,NA,TRADITIONAL,2463,24.63,R,77.7
1025,USC00057950,40.6278,-103.2083,1211.3,CO,STERLING,,,NA,TRADITIONAL,1589,15.89,R,36.7
1026,USC00057992,37.2931,-102.1864,1158.8,CO,STONINGTON,,,NA,TRADITIONAL,1721,17.21,R,33.6
1027,USC00058008,39.3047,-102.6003,1340.8,CO,STRATTON,,,NA,TRADITIONAL,1864,18.64,R,40.2
1028,USC00058022,39.4344,-105.1208,1780,CO,STRONTIA SPRINGS DAM,,,NA,TRADITIONAL,2166,21.66,R,51.5
1029,USC00058064,39.2494,-106.3714,2968.1,CO,SUGARLOAF RSVR,,,NA,TRADITIONAL,1643,16.43,R,51.3
1030,USC00058157,38.3422,-104.0567,1488,CO,TACONY 13 SE,,,NA,TRADITIONAL,1188,11.88,S,29.3
1031,USC00058184,38.8183,-106.6086,2797.8,CO,TAYLOR PARK,,,NA,TRADITIONAL,1825,18.25,S,67.7
1032,USC00058204,37.9492,-107.8736,2635.6,CO,TELLURIDE 4WNW,,HCN,NA,TRADITIONAL,2330,23.3,S,71.8
1033,USC00058290,37.6667,-103.9167,1472.2,CO,TIMPAS 13 SW,,,NA,TRADITIONAL,1531,15.31,R,37.8
1034,USC00058429,37.1786,-104.4869,1837.9,CO,TRINIDAD,,HCN,NA,TRADITIONAL,1631,16.31,R,40.3
1035,USC00058436,37.1503,-104.5567,1923.3,CO,TRINIDAD LAKE,,,NA,TRADITIONAL,1797,17.97,R,45.2
1036,USC00058501,39.0936,-106.3514,2805.7,CO,TWIN LAKES RESERVOIR,,,NA,TRADITIONAL,994,9.94,R,30.7
1037,USC00058560,38.3761,-108.7422,1530.4,CO,URAVAN,,,NA,TRADITIONAL,1306,13.06,S,40.6
1038,USC00058575,39.6394,-106.3539,2531.1,CO,VAIL,,,NA,TRADITIONAL,2307,23.07,R,72
1039,USC00058582,37.3842,-107.5822,2364.9,CO,VALLECITO DAM,,,NA,TRADITIONAL,2698,26.98,R,63.9
1040,USC00058690,40.9656,-105.2186,2138.2,CO,VIRGINIA DALE 7 ENE,,,NA,TRADITIONAL,1712,17.12,R,40.3
1041,USC00058756,40.7442,-106.2792,2455.5,CO,WALDEN,,,NA,TRADITIONAL,1239,12.39,S,39.1
1042,USC00058781,37.6303,-104.7956,1920.2,CO,WALSENBURG 1 NW,,,NA,TRADITIONAL,1804,18.04,S,44.5
1043,USC00058793,37.3822,-102.2986,1212.5,CO,WALSH 1 W,,,NA,TRADITIONAL,1916,19.16,S,38.7
1044,USC00058839,40.4256,-105.2103,1594.1,CO,WATERDALE,,,NA,TRADITIONAL,1653,16.53,R,39.8
1045,USC00058931,38.1311,-105.4661,2395.7,CO,WESTCLIFFE,,,NA,TRADITIONAL,1455,14.55,R,41
1046,USC00058995,39.775,-105.1169,1645.3,CO,WHEAT RIDGE 2,,,NA,TRADITIONAL,1820,18.2,S,46.4
1047,USC00059096,40.0375,-106.2039,2322,CO,WILLIAMS FORK DAM,,,NA,TRADITIONAL,1459,14.59,S,48.1
1048,USC00059175,39.8683,-105.7639,2776.1,CO,WINTER PARK,,,NA,TRADITIONAL,2678,26.78,R,83.5
1049,USC00059181,37.4744,-106.7906,3243.1,CO,WOLF CREEK PASS 1 E,,,NA,TRADITIONAL,4568,45.68,R,94.6
1050,USC00059213,40.075,-103.5678,1333.2,CO,WOODROW 6NNE,,,NA,TRADITIONAL,1564,15.64,R,36.3
1051,USC00059216,37.0183,-104.4886,2310.4,CO,WOOTTON RCH,,,NA,TRADITIONAL,2030,20.3,R,52.7
1052,USC00059243,40.0583,-102.2189,1121.7,CO,WRAY,,HCN,NA,TRADITIONAL,1832,18.32,R,40.6
1053,USC00059265,40.1561,-106.9092,2394.8,CO,YAMPA,,,NA,TRADITIONAL,1670,16.7,S,55.6
1054,USC00059275,37.5206,-108.7561,2090.9,CO,YELLOW JACKET 2 W,,,NA,TRADITIONAL,1589,15.89,R,45.6
1055,USC00059295,40.1236,-102.7217,1261.9,CO,YUMA,,,NA,TRADITIONAL,1789,17.89,R,40.7
1056,USC00059297,40.2094,-102.8117,1252.7,CO,YUMA 10 NW,,,NA,TRADITIONAL,1776,17.76,R,41.4
1057,USC00060128,41.3489,-73.0694,42.7,CT,ANSONIA 1 NE,,,NA,TRADITIONAL,5110,51.1,R,76.9
1058,USC00060227,41.8417,-73.0086,209.1,CT,BAKERSVILLE,,,NA,TRADITIONAL,5368,53.68,R,88.5
1059,USC00060299,41.9211,-72.9644,214.9,CT,BARKHAMSTED,,,NA,TRADITIONAL,5082,50.82,S,83.2
1060,USC00060961,41.65,-73.4833,79.2,CT,BULLS BRG DAM,,,NA,TRADITIONAL,4771,47.71,R,82.1
1061,USC00060973,41.7944,-72.9319,153.9,CT,BURLINGTON,,,NA,TRADITIONAL,5344,53.44,R,82.6
1062,USC00061762,41.4,-73.4167,123.4,CT,DANBURY,,,NA,TRADITIONAL,5283,52.83,R,83.7
1063,USC00062169,41.2847,-72.8564,9.1,CT,EAST HAVEN SALTONSTALL,,,NA,TRADITIONAL,4510,45.1,R,68.3
1064,USC00062658,41.95,-73.3667,167.6,CT,FALLS VILLAGE,,HCN,NA,TRADITIONAL,4586,45.86,S,83.1
1065,USC00063207,41.3511,-72.0389,12.2,CT,GROTON,,HCN,NA,TRADITIONAL,4968,49.68,S,80.7
1066,USC00063857,41.6297,-71.9014,121.9,CT,JEWETT CITY,,,NA,TRADITIONAL,4859,48.59,R,78.6
1067,USC00064488,41.7572,-72.1858,76.2,CT,MANSFIELD HOLLOW LAKE,,,NA,TRADITIONAL,5208,52.08,R,83.8
1068,USC00064767,41.55,-72.7167,112.5,CT,MIDDLETOWN 4 W,,,NA,TRADITIONAL,5116,51.16,R,79.9
1069,USC00065077,41.4075,-72.9033,54.9,CT,MT CARMEL,,,NA,TRADITIONAL,5231,52.31,R,80.6
1070,USC00065445,41.9725,-73.2208,408.4,CT,NORFOLK 2 SW,,,NA,TRADITIONAL,5312,53.12,S,92.7
1071,USC00065910,41.5269,-72.0642,6.1,CT,NORWICH PUB UTIL PLT,,,NA,TRADITIONAL,5481,54.81,S,79.6
1072,USC00066655,41.0825,-73.6386,91.4,CT,PUTNAM LAKE,,,NA,TRADITIONAL,5004,50.04,R,78.2
1073,USC00066966,41.5831,-73.4331,67.1,CT,ROCKY RIVER DAM,,,NA,TRADITIONAL,4849,48.49,R,81.9
1074,USC00067002,41.3008,-73.5369,243.8,CT,ROUND POND,,,NA,TRADITIONAL,5275,52.75,R,78.5
1075,USC00067157,41.25,-73.35,91.4,CT,SAUGATUCK RSVR,,,NA,TRADITIONAL,5154,51.54,R,78.5
1076,USC00067373,41.7167,-73.3,256,CT,SHEPAUG DAM,,,NA,TRADITIONAL,5185,51.85,R,86.4
1077,USC00067432,41.6444,-72.8167,125,CT,SHUTTLE MEADOW RESVR,,,NA,TRADITIONAL,5280,52.8,R,68.7
1078,USC00067959,41.95,-72.3,138.7,CT,STAFFORD SPRINGS 2,,,NA,TRADITIONAL,4859,48.59,R,84.3
1079,USC00067970,41.1247,-73.5475,57.9,CT,STAMFORD 5 N,,HCN,NA,TRADITIONAL,5315,53.15,R,82.3
1080,USC00068065,41.3819,-73.1717,35.1,CT,STEVENSON DAM,,,NA,TRADITIONAL,5106,51.06,R,77.9
1081,USC00068138,41.795,-72.2286,202.7,CT,STORRS,,HCN,NA,TRADITIONAL,4975,49.75,R,83.4
1082,USC00068436,41.8,-73.1167,176.8,CT,TORRINGTON,,,NA,TRADITIONAL,5231,52.31,R,79.7
1083,USC00069162,41.75,-72.7833,83.8,CT,WEST HARTFORD,,,NA,TRADITIONAL,5853,58.53,R,79.3
1084,USC00069388,41.9442,-71.9031,112.8,CT,WEST THOMPSON LAKE,,,NA,TRADITIONAL,5107,51.07,R,82.8
1085,USC00069568,41.6667,-73.1333,173.7,CT,WIGWAM RSVR,,,NA,TRADITIONAL,5171,51.71,R,84
1086,USC00069775,41.5536,-73.2297,198.1,CT,WOODBURY,,,NA,TRADITIONAL,5165,51.65,S,90.8
1087,USC00072730,39.2583,-75.5167,9.1,DE,DOVER,,HCN,NA,TRADITIONAL,4605,46.05,S,78.1
1088,USC00073570,38.6333,-75.45,13.7,DE,GEORGETOWN 5 SW,,,NA,TRADITIONAL,4697,46.97,R,76.3
1089,USC00073595,38.8161,-75.5761,13.7,DE,GREENWOOD 2NE,,HCN,NA,TRADITIONAL,4520,45.2,R,75.2
1090,USC00075320,38.7756,-75.1389,4.6,DE,LEWES,,,NA,TRADITIONAL,4684,46.84,R,75.4
1091,USC00076410,39.6694,-75.7514,27.4,DE,NEWARK UNIV FARM,,HCN,NA,TRADITIONAL,4623,46.23,R,75.9
1092,USC00079605,39.7739,-75.5414,82.3,DE,WILMINGTON PORTER RES,,HCN,NA,TRADITIONAL,4932,49.32,S,78.4
1093,USC00080228,27.2181,-81.8739,9.1,FL,ARCADIA,,HCN,NA,TRADITIONAL,5224,52.24,R,68.1
1094,USC00080236,27.1819,-81.3508,42.7,FL,ARCHBOLD BIO STN,,,NA,TRADITIONAL,5215,52.15,S,74.6
1095,USC00080369,27.5947,-81.5267,46.9,FL,AVON PARK 2 W,,,NA,TRADITIONAL,5080,50.8,S,72.9
1096,USC00080390,27.85,-81.5167,38.1,FL,BABSON PARK 1 ENE,,,NA,TRADITIONAL,5165,51.65,R,75.2
1097,USC00080478,27.8986,-81.8433,38.1,FL,BARTOW,,HCN,NA,TRADITIONAL,5208,52.08,R,74.3
1098,USC00080611,26.6928,-80.6711,6.1,FL,BELLE GLADE,,HCN,NA,TRADITIONAL,5173,51.73,R,77.1
1099,USC00080945,27.4467,-82.5014,6.1,FL,BRADENTON 5 ESE,,,NA,TRADITIONAL,5618,56.18,S,73.2
1100,USC00081046,28.6164,-82.3658,73.2,FL,BROOKSVILLE CHIN HILL,,,NA,TRADITIONAL,5270,52.7,R,75.1
1101,USC00081276,26.8639,-80.6256,9.1,FL,CANAL POINT USDA,,,NA,TRADITIONAL,5261,52.61,S,76.1
1102,USC00081544,30.7836,-85.4847,39.6,FL,CHIPLEY,,,NA,TRADITIONAL,5908,59.08,S,79.1
